stop_id,stop_name,stop_lat,stop_lon
GABS001,Bellville,18.62981745,-33.90587816
GABS002,Capricorn,18.4821249,-34.08734421
GABS003,Century City,18.50644576,-33.89151693
GABS004,Claremont,18.46629325,-33.98035719
GABS005,Durbanville,18.65152319,-33.82739892
GABS006,Elsies River,18.56794156,-33.91175302
GABS007,Fish Hoek Station,18.43252034,-34.13617564
GABS008,Golden Acre,18.42488968,-33.92408702
GABS009,Hanover Park,18.52688522,-33.99569654
GABS010,Heideveld Station,18.56130598,-33.97009461
GABS011,Khayelitsha (Makhaza),18.7098367,-34.05000389
GABS012,Khayelitsha Village 3,18.66345761,-34.02596835
GABS013,Killarney,18.52536188,-33.83330672
GABS014,Koeberg Station,18.47723555,-33.92524892
GABS015,Mitchells Plain Town Centre,18.62075463,-34.0477059
GABS016,Mowbray,18.47367456,-33.94858328
GABS017,Nyanga Central,18.58335833,-33.9921955
GABS018,Ocean View (Gemini Road),18.35105444,-34.14658095
GABS019,Grassy Park (Busy Corner),18.496459,-34.04904462
GABS020,Retreat,18.46274192,-34.05969294
GABS021,Somerset West,18.84996787,-34.08420603
GABS022,Tygerberg,18.600913,-33.90656323
GABS023,Bonteheuwel,18.55203132,-33.95182332
GABS024,Waterfront,18.42432933,-33.90127577
GABS025,Wynberg,18.47231878,-34.00521098
GABS026,Manenberg,18.54987072,-33.99847834
GABS027,Bothasig,18.54792632,-33.87084158
GABS028,Langa,18.52959549,-33.93987552
GABS029,Strand,18.82692976,-34.1175949
GABS030,Netreg,18.56431587,-33.95275992
mr_1,AKASIA PARK,-33.89167,18.5275
mr_2,ATHLONE,-33.96089,18.501622
mr_3,AVONDALE,-33.897776,18.593072
mr_4,Akasia Park,-33.89167,18.5275
mr_5,BELHAR,-33.939441,18.609057
mr_6,BELLVILLE,-33.906298,18.627491
mr_7,BLACKHEATH,-33.964266,18.701263
mr_8,BONTEHEUWEL,-33.942095,18.550369
mr_9,BRACKENFELL,-33.881123,18.688336
mr_10,CAPE TOWN,-33.92222,18.42639
mr_11,CENTURY CITY,-33.90131,18.51151
mr_12,CHRIS HANI,-34.0548,18.7108
mr_13,CLAREMONT,-33.981481,18.467184
mr_14,CRAWFORD,-33.976422,18.501359
mr_15,Cape Town,-33.92222,18.42639
mr_16,Century City,-33.90131,18.51151
mr_17,Chris Hani,-34.0548,18.7108
mr_18,DAL JOSAFAT,-33.699023284860914,18.97997900650834
mr_19,DE GRENDEL,-33.893501,18.578732
mr_20,DIEPRIVIER,-34.035454,18.466953
mr_21,DU TOIT,-33.923519818627334,18.854193353665053
mr_22,Dal Josafat,-33.699023284860914,18.97997900650834
mr_23,Du Toit,-33.923519818627334,18.854193353665053
mr_24,EERSTE RIVER,-34.000743,18.730914
mr_25,EIKENFONTEIN,-33.857134,18.71127
mr_26,ELSIES RIVER,-33.91054,18.569083
mr_27,ESPLANADE,-33.92365858955656,18.445748276952248
mr_28,Esplanade,-33.92365858955656,18.445748276952248
mr_29,FALSE BAY,-34.10239948288046,18.468559715317706
mr_30,FAURE,-34.026236,18.74719
mr_31,FIRGROVE,-34.055629,18.792935
mr_32,FISH HOEK,-34.13843,18.4307
mr_33,False Bay,-34.10239948288046,18.468559715317706
mr_34,Fish Hoek,-34.13843,18.4307
mr_35,GLENCAIRN,-34.164123,18.43203
mr_36,GOODWOOD,-33.91436738390068,18.547187376678394
mr_37,Goodwood,-33.91436738390068,18.547187376678394
mr_38,HARFIELD RD,-33.988286,18.471187
mr_39,HAZENDAL,-33.953312,18.502537
mr_40,HEATHFIELD,-34.046077,18.465594
mr_41,HEIDEVELD,-33.969678,18.561797
mr_42,HUGUENOT,-33.7398,18.9634
mr_43,Huguenot,-33.7398,18.9634
mr_44,KALK BAY,-34.126299,18.449956
mr_45,KAPTEINSKLIP,-34.067222,18.620684
mr_46,KENILWORTH,-33.995285,18.473
mr_47,KENTEMADE,-33.91333758168466,18.497271380650695
mr_48,KHAYELITSHA,-34.047985,18.670772
mr_49,KLAPMUTS,-33.8058146012784,18.87018669598775
mr_50,KOEBERG RD,-33.925787,18.47792
mr_51,KOELENHOF,-33.873738009466756,18.81950991133375
mr_52,KRAAIFONTEIN,-33.847178,18.723839
mr_53,KUILS RIVER,-33.93333804017317,18.677541695994268
mr_54,KUYASA,-34.055056252466635,18.69273409415094
mr_55,Kentemade,-33.91333758168466,18.497271380650695
mr_56,Klapmuts,-33.8058146012784,18.87018669598775
mr_57,Koelenhof,-33.873738009466756,18.81950991133375
mr_58,Kuils River,-33.93333804017317,18.677541695994268
mr_59,Kuyasa,-34.055056252466635,18.69273409415094
mr_60,LAKESIDE,-34.088484,18.462489
mr_61,LANGA,-33.9392,18.52966
mr_62,LANSDOWNE,-33.987594,18.50394
mr_63,LAVISTOWN,-33.943277,18.584198
mr_64,LENTEGEUR,-34.034437,18.611373
mr_65,LYNEDOCH,-33.98097263794659,18.77155839784612
mr_66,Lynedoch,-33.98097263794659,18.77155839784612
mr_67,MAITLAND,-33.924712,18.487822
mr_68,MANDALAY,-34.018928,18.624421
mr_69,MBEKWENI,-33.674363773384485,18.985437506321983
mr_70,MELTONROSE,-33.98873136183535,18.72026905366841
mr_71,MITCHELLS PL.,-34.048760576088355, 18.618678315202782
mr_72,MONTE VISTA,-33.891647,18.548935
mr_73,MOWBRAY,-33.946733,18.473885
mr_74,MUIZENBERG,-34.109571,18.467916
mr_75,MULDERSVLEI,-33.83078327858889,18.82812816715343
mr_76,MUTUAL,-33.921749,18.513696
mr_78,Mbekweni,-33.674363773384485,18.985437506321983
mr_79,Meltonrose,-33.98873136183535,18.72026905366841
mr_80,Mitchells Plain,-34.04953,18.61916
mr_81,Muldersvlei,-33.83078327858889,18.82812816715343
mr_82,NDABENI,-33.928238,18.49542
mr_83,NETREG,-33.952749,18.563571
mr_84,NEWLANDS,-33.974194,18.46761
mr_85,NOLUNGILE,-34.016939,18.648924
mr_86,NONKQUBELA,-34.026783,18.663078
mr_87,NYANGA,-33.993111,18.559914
mr_89,OBSERVATORY,-33.937882,18.471405
mr_90,OOSTERZEE,-33.899941,18.607073
mr_91,OTTERY,-34.013462,18.495211
mr_92,PAARL,-33.71555,18.96625
mr_93,PAROW,-33.909575,18.586203
mr_94,PENTECH,-33.934832,18.645965
mr_95,PHILIPPI,-34.013361,18.585385
mr_96,PINELANDS,-33.940121,18.490662
mr_97,PLUMSTEAD,-34.022033,18.469739
mr_98,Paarl,-33.71555,18.96625
mr_99,RETREAT,-34.059839,18.462936
mr_100,RONDEBOSCH,-33.962161,18.472369
mr_101,ROSEBANK,-33.954724,18.473143
mr_104,SALT RIVER,-33.92723,18.46502
mr_105,SAREPTA,-33.926513,18.661384
mr_107,SOMERSET WEST,-34.084224,18.841436
mr_108,SOUTHFIELD,-34.032969,18.481599
mr_109,ST JAMES,-34.119311,18.45842
mr_110,STEENBERG,-34.076405,18.463689
mr_111,STELLENBOSCH,-33.9385789435876,18.849779082501456
mr_112,STEURHOF,-34.028836,18.468908
mr_113,STIKLAND,-33.904768,18.656366
mr_114,STOCK ROAD,-34.0139183790727,18.60624931134088
mr_115,STRAND,-34.115026,18.832457
mr_116,SUNNY COVE,-34.14424690706408,18.437244867169387
mr_117,Salt River,-33.92723,18.46502
mr_118,Simonâ€™s Town,-34.18669557305048,18.425413911349672
mr_119,Stellenbosch,-33.9385789435876,18.849779082501456
mr_120,Stock Road,-34.0139183790727,18.60624931134088
mr_121,Sunny Cove,-34.14424690706408,18.437244867169387
mr_122,THORNTON,-33.918905,18.532447
mr_123,TYGERBERG,-33.907388,18.601514
mr_124,UNIBELL,-33.937044,18.62858
mr_125,VAN DER STEL,-34.09504,18.852837
mr_126,VASCO,-33.911215,18.558429
mr_127,VLOTTENBURG,-33.96184301841245,18.799895609488726
mr_128,Vlottenburg,-33.96184301841245,18.799895609488726
mr_129,WELLINGTON,-33.63447668679283,18.991901311321545
mr_130,WETTON,-34.001906,18.501037
mr_131,WITTEBOME,-34.014044,18.470709
mr_132,WOLTEMADE,-33.92213,18.50764
mr_133,WOODSTOCK,-33.925483,18.445608
mr_134,WYNBERG,-34.004856,18.471217
mr_135,Wellington,-33.63447668679283,18.991901311321545
mr_136,Woltemade,-33.92213,18.50764
mr_137,YSTERPLAAT,-33.919921,18.476845
mc_ABBAS,Abbas,-34.08308,18.44012
mc_ACACIA,Acacia,-33.7642,18.64696
mc_ADDERLEY,Adderley,-34.07984,18.62092
mc_ADDERLEY_HOLDING,Adderley Holding,-33.73648,18.37608
mc_ALBANY,Albany,-34.0984,18.40144
mc_ALBERTO,Alberto,-34.0318,18.52476
mc_ALFRED,Alfred,-33.71896,18.38184
mc_ALIAM,Aliam,-33.97084,18.32924
mc_ALOE,Aloe,-34.05964,18.38348
mc_AMSTERDAM,Amsterdam,-34.05272,18.34772
mc_ANKERLIG_POWER_STATION,Ankerlig Power Station,-33.87188,18.44484
mc_ANNANDALE,Annandale,-33.81144,18.51252
mc_AQUARIUM,Aquarium,-33.97416,18.6466
mc_ARION,Arion,-33.82084,18.5644
mc_ARMSTRONG,Armstrong,-33.97048,18.45352
mc_ARTHURS,Arthurs,-33.72168,18.69004
mc_ATALANTES,Atalantes,-34.09472,18.39052
mc_ATHOLL,Atholl,-33.83308,18.30732
mc_ATLANTIC_BEACH,Atlantic Beach,-33.71328,18.60824
mc_ATLANTIC_SKIPPER,Atlantic Skipper,-33.93948,18.48796
mc_ATLANTIS_CEMETERY,Atlantis Cemetery,-33.9398,18.4814
mc_ATLANTIS_STATION,Atlantis Station,-34.09556,18.55708
mc_AUGUST_KOTZENBERG,August Kotzenberg,-34.05688,18.49664
mc_AVONDALE,Avondale,-33.94204,18.31652
mc_AZALEA,Azalea,-33.7438,18.37304
mc_BAKOVEN,Bakoven,-33.95564,18.412
mc_BALFOUR,Balfour,-33.88204,18.39688
mc_BANTRY_BAY,Bantry Bay,-33.75724,18.61136
mc_BARLEY_BAY,Barley Bay,-33.97704,18.6968
mc_BARRON,Barron,-33.89992,18.62724
mc_BAYVIEW,Bayview,-33.74012,18.49152
mc_BEGONIA,Begonia,-34.0266,18.44156
mc_BELLE_OMBRE,Belle Ombre,-33.71256,18.46172
mc_BEN_NEVIS,Ben Nevis,-33.92896,18.46856
mc_BENGAL,Bengal,-34.039,18.57176
mc_BERGENDAL,Bergendal,-33.89948,18.33104
mc_BERKSHIRE_WEST,Berkshire West,-33.70456,18.50136
mc_BERZELIA,Berzelia,-33.99988,18.60456
mc_BIG_BAY,Big Bay,-33.88724,18.597
mc_BIRKENHEAD,Birkenhead,-33.90904,18.5326
mc_BISCUIT_MILL,Biscuit Mill,-34.05692,18.56784
mc_BITTERN,Bittern,-33.86948,18.40976
mc_BLAAUWBERG_HOSPITAL,Blaauwberg Hospital,-34.01716,18.62604
mc_BLAAUWBERG_HOSPITAL_,Blaauwberg Hospital_,-33.90252,18.58892
mc_BLOUBERG_RISE,Blouberg Rise,-33.8284,18.53152
mc_BLOUBERG_SANDS,Blouberg Sands,-33.89348,18.3154
mc_BOAT_BAY,Boat Bay,-33.96524,18.49132
mc_BOKKOMBAAI,Bokkombaai,-33.76668,18.3212
mc_BOLT,Bolt,-34.07524,18.62596
mc_BONTEBOK,Bontebok,-33.93144,18.3334
mc_BOSMANSDAM,Bosmansdam,-33.98,18.6156
mc_BOTTLEBRUSH,Bottlebrush,-33.83556,18.37892
mc_BOUNDARY,Boundary,-33.79848,18.58528
mc_BRASELTON,Braselton,-33.7044,18.65848
mc_BREAKWATER,Breakwater,-34.05012,18.33132
mc_BRECON,Brecon,-34.0854,18.65472
mc_BRENTON,Brenton,-33.71796,18.34168
mc_BREVITY_LANE,Brevity Lane,-33.90532,18.39824
mc_BRIDGEWAY,Bridgeway,-33.965,18.485
mc_BRITTLESTAR,Brittlestar,-34.0428,18.51488
mc_BRIZA,Briza,-34.04632,18.43764
mc_BROOK,Brook,-33.7826,18.42792
mc_BRUTUS,Brutus,-33.7458,18.40672
mc_BUICK,Buick,-33.8224,18.36412
mc_CPUT,CPUT,-33.94864,18.50188
mc_CABIN,Cabin,-34.04664,18.57512
mc_CAELIAN,Caelian,-33.91292,18.66096
mc_CAMBERWELL,Camberwell,-34.03652,18.37832
mc_CAMPS_BAY,Camps Bay,-33.90208,18.38136
mc_CANAL_WALK_NORTH,Canal Walk North,-33.8986,18.32956
mc_CANAL_WALK_SOUTH,Canal Walk South,-33.7826,18.60856
mc_CAPITOLINE,Capitoline,-34.09248,18.58388
mc_CARMEL,Carmel,-33.95748,18.59004
mc_CASSEL,Cassel,-33.7536,18.57144
mc_CASTLE,Castle,-33.77484,18.5166
mc_CASTLEHILL,Castlehill,-33.79844,18.6274
mc_CENTRAL_PARK,Central Park,-33.94032,18.37596
mc_CENTURY_CITY,Century City,-33.70692,18.6694
mc_CENTURY_CITY_RAIL,Century City Rail,-33.98316,18.576
mc_CENTURY_GATE,Century Gate,-33.937,18.61648
mc_CHAREL_UYS,Charel Uys,-33.83272,18.40804
mc_CHAREL_UYS_NORTH,Charel Uys North,-33.98232,18.40344
mc_CHAREL_UYS_SOUTH,Charel Uys South,-34.08248,18.49344
mc_CHARLES_DUMINY,Charles Duminy,-33.70384,18.31136
mc_CHARLES_MATTHEWS,Charles Matthews,-33.75572,18.35676
mc_CHARLES_MOKOENA,Charles Mokoena,-33.87032,18.47224
mc_CHARLES_PIERS,Charles Piers,-33.89068,18.34968
mc_CHAS_BOOTH,Chas Booth,-33.70404,18.5122
mc_CHESTER_EAST,Chester East,-34.0128,18.35332
mc_CHESTER_WEST,Chester West,-33.75512,18.65236
mc_CHESTERFIELD,Chesterfield,-33.88792,18.57668
mc_CHIPPENHAM,Chippenham,-33.999,18.43628
mc_CHURCH,Church,-33.9004,18.632
mc_CHURCHILL,Churchill,-33.88364,18.373
mc_CIRCLE_EAST,Circle East,-34.00316,18.5326
mc_CIVIC_CENTRE,Civic Centre,-33.99844,18.37464
mc_CLARENS,Clarens,-33.81196,18.69896
mc_CLEARWATER,Clearwater,-33.93788,18.3648
mc_CLIFTON,Clifton,-33.95092,18.69428
mc_CLIFTON_2ND,Clifton 2Nd,-33.90852,18.56832
mc_CLIFTON_3RD,Clifton 3Rd,-33.84692,18.54908
mc_CLIFTON_4TH,Clifton 4Th,-33.8396,18.46508
mc_COLEBROOK,Colebrook,-33.84672,18.3822
mc_COMRIE,Comrie,-33.81492,18.45716
mc_CONVENTION_CENTRE,Convention Centre,-33.71216,18.54316
mc_CONWAY,Conway,-33.80732,18.44428
mc_CORMORANT,Cormorant,-34.03844,18.63432
mc_CORONATION,Coronation,-33.97532,18.62
mc_CORONATION_EAST,Coronation East,-34.0554,18.5662
mc_CORONATION_WEST,Coronation West,-34.0132,18.67316
mc_CORSAIR,Corsair,-33.90688,18.44172
mc_COSMONAUT,Cosmonaut,-34.01156,18.34504
mc_COTSWOLD,Cotswold,-33.72956,18.51052
mc_CRASSULA,Crassula,-34.01464,18.35608
mc_CROWN,Crown,-33.79436,18.38312
mc_CURLEW,Curlew,-33.86028,18.38036
mc_D_NYEMBE,D Nyembe,-33.98224,18.3778
mc_DAHLIA,Dahlia,-33.76412,18.5554
mc_DAIMLERBENZ,Daimlerbenz,-33.96392,18.4394
mc_DAL,Dal,-34.0922,18.6714
mc_DAPHNE,Daphne,-33.7096,18.38652
mc_DARLING,Darling,-33.825,18.5824
mc_DARTFORD,Dartford,-33.73996,18.6964
mc_DAVID_CLOETE,David Cloete,-33.81556,18.5594
mc_DAVISON,Davison,-34.0574,18.30696
mc_DAWN,Dawn,-34.01068,18.46184
mc_DE_MIST,De Mist,-33.79964,18.46584
mc_DE_WAAL_PARK,De Waal Park,-33.99172,18.68592
mc_DEERHURST,Deerhurst,-33.80104,18.5914
mc_DEERLODGE,Deerlodge,-33.77804,18.31304
mc_DEMOCRACY_SOUTH,Democracy South,-34.0672,18.5374
mc_DENNE_CENTRAL,Denne Central,-33.96024,18.47864
mc_DENNE_EAST,Denne East,-33.82352,18.3922
mc_DENNE_WEST,Denne West,-33.9834,18.47184
mc_DIBANA,Dibana,-33.73168,18.62552
mc_DISA,Disa,-33.9172,18.313
mc_DISANDT,Disandt,-33.80268,18.62684
mc_DISCOVERY,Discovery,-33.73196,18.60364
mc_DISTRICT_SIX,District Six,-34.01492,18.41692
mc_DOLOMITES_EAST,Dolomites East,-33.8186,18.637
mc_DOLOMITES_WEST,Dolomites West,-34.03368,18.55068
mc_DORCHESTER,Dorchester,-33.72568,18.49608
mc_DORP,Dorp,-33.75568,18.50088
mc_DREYER,Dreyer,-33.99516,18.43732
mc_DRILL,Drill,-34.05852,18.38272
mc_DUBLIN,Dublin,-33.98224,18.55452
mc_DUNKER,Dunker,-33.80436,18.39328
mc_DUYNEFONTEIN,Duynefontein,-34.08516,18.35016
mc_EARLSWOOD,Earlswood,-34.09188,18.6926
mc_ECHIUM,Echium,-34.0598,18.58668
mc_EDISON,Edison,-33.72912,18.4976
mc_EDWARD,Edward,-33.83296,18.47788
mc_ELLERTON,Ellerton,-34.08856,18.58192
mc_EMERALD,Emerald,-33.94532,18.58736
mc_ENON,Enon,-33.83028,18.32844
mc_ENTERPRISE,Enterprise,-33.72176,18.69
mc_ESSO,Esso,-34.05056,18.33856
mc_ESTUARIES,Estuaries,-33.71844,18.43732
mc_EXNER,Exner,-33.94996,18.36736
mc_FENWICK,Fenwick,-33.97088,18.69464
mc_FERNANDE,Fernande,-33.8288,18.6108
mc_FIGARO,Figaro,-33.755,18.43504
mc_FIRMOUNT,Firmount,-33.98944,18.56656
mc_FIRST,First,-33.789,18.491
mc_FISHMARKET,Fishmarket,-33.98288,18.48412
mc_FISKAAL,Fiskaal,-33.75936,18.40636
mc_FORESHORE,Foreshore,-33.8018,18.3834
mc_FRANS,Frans,-33.8488,18.30868
mc_FRESNAYE,Fresnaye,-33.90528,18.54892
mc_GALLOWS_HILL,Gallows Hill,-33.93164,18.59924
mc_GARDEN,Garden,-33.91336,18.54156
mc_GARDENIA,Gardenia,-33.85536,18.39584
mc_GARDENS,Gardens,-33.8524,18.56988
mc_GERWYN_OWEN,Gerwyn Owen,-33.7832,18.4274
mc_GIDEON_BASSON,Gideon Basson,-33.90632,18.34716
mc_GIE_CENTRAL,Gie Central,-34.01356,18.67416
mc_GIE_NORTH,Gie North,-33.9422,18.67708
mc_GIE_SOUTH,Gie South,-33.99348,18.64752
mc_GLEN_BEACH,Glen Beach,-33.80248,18.6126
mc_GOEDE_HOOP,Goede Hoop,-33.7392,18.55056
mc_GOEDVERWACHT,Goedverwacht,-33.83704,18.55408
mc_GOTHENBURG,Gothenburg,-33.7948,18.4764
mc_GOUSBLOM,Gousblom,-33.99176,18.3698
mc_GOVERNMENT_AVE,Government Ave,-34.01764,18.37992
mc_GRAAFS_POOL,Graafs Pool,-33.72104,18.33688
mc_GRAND_CANAL,Grand Canal,-34.06812,18.44204
mc_GRANGER,Granger,-33.919,18.3434
mc_GRANGER_BAY,Granger Bay,-33.98104,18.31904
mc_GREEN,Green,-33.99876,18.6384
mc_GREY,Grey,-33.92296,18.65008
mc_GROOTE_KERK,Groote Kerk,-33.82448,18.52376
mc_GROSVENOR,Grosvenor,-33.78596,18.44608
mc_GROSVENOR_NORTH,Grosvenor North,-33.78052,18.33636
mc_HAMPSTEAD,Hampstead,-33.86568,18.47652
mc_HAMPTONS,Hamptons,-33.7916,18.364
mc_HANGBERG,Hangberg,-34.01552,18.5214
mc_HANOVER_STREET,Hanover Street,-33.75084,18.51884
mc_HARRY_ALEXANDER,Harry Alexander,-34.0634,18.6142
mc_HELGARDA,Helgarda,-34.08364,18.46492
mc_HERMES,Hermes,-33.71444,18.6706
mc_HERMESLAAN_PRIMARY,Hermeslaan Primary,-33.81336,18.34788
mc_HERZLIA,Herzlia,-33.91324,18.30724
mc_HIGGO,Higgo,-33.88156,18.57524
mc_HIGH_LEVEL,High Level,-33.9834,18.53288
mc_HIGHLANDS,Highlands,-33.71628,18.55948
mc_HILL,Hill,-33.99476,18.3604
mc_HILLARY,Hillary,-33.95804,18.66092
mc_HOFFE_NORTH,Hoffe North,-33.95076,18.5346
mc_HOFFE_SOUTH,Hoffe South,-34.02656,18.30844
mc_HOL_BAY,Hol Bay,-34.00412,18.43848
mc_HOOGERGEEST,Hoogergeest,-33.7224,18.32536
mc_HORAK,Horak,-34.09908,18.3934
mc_HOUGHTON,Houghton,-33.85208,18.6958
mc_HOUT_BAY,Hout Bay,-33.84816,18.4466
mc_HUMAN,Human,-34.06348,18.58384
mc_IMIZAMO_YETHU,Imizamo Yethu,-33.95284,18.6384
mc_IMPERIAL,Imperial,-34.02744,18.56236
mc_INDUSTRIAL,Industrial,-34.03336,18.68744
mc_INSISWA,Insiswa,-34.06892,18.6578
mc_INVERMARK,Invermark,-33.94108,18.4512
mc_IRWINTON,Irwinton,-33.80256,18.6818
mc_JANSSENS,Janssens,-33.97108,18.32788
mc_JEFF_MASEMOLA,Jeff Masemola,-33.91396,18.609
mc_JOHAN_HEYNS,Johan Heyns,-34.01436,18.5598
mc_JOHAN_HEYNS_NORTH,Johan Heyns North,-34.07804,18.56228
mc_JOHANNES,Johannes,-33.88496,18.51172
mc_JOHN_DREYER,John Dreyer,-33.94768,18.4056
mc_JOHN_VAN_NIEKERK,John Van Niekerk,-33.73304,18.67844
mc_KAPTEINSKLIP,Kapteinsklip,-34.00344,18.6632
mc_KEHRWEIDER,Kehrweider,-33.80148,18.64812
mc_KEI_APPLE,Kei Apple,-33.90076,18.52948
mc_KEMP,Kemp,-33.7344,18.46916
mc_KENT,Kent,-33.85616,18.53436
mc_KERREM,Kerrem,-33.87972,18.56128
mc_KERRIA_PRIMARY,Kerria Primary,-33.9314,18.66064
mc_KEW,Kew,-33.75212,18.55396
mc_KHWEBULA,Khwebula,-34.09504,18.4038
mc_KHWEZI,Khwezi,-33.718,18.49236
mc_KILLARNEY,Killarney,-33.84216,18.4362
mc_KLEINBAAI,Kleinbaai,-33.8592,18.62752
mc_KLIPHEUWEL,Klipheuwel,-34.04732,18.38016
mc_KLOOF,Kloof,-33.79168,18.59328
mc_KLOOF_NEK,Kloof Nek,-33.90036,18.64756
mc_KNYSNA,Knysna,-33.80628,18.33044
mc_KOEBERG_POWER_STATION,Koeberg Power Station,-33.91636,18.59388
mc_KOEL_BAY,Koel Bay,-34.02896,18.65924
mc_KOLGHA,Kolgha,-33.94936,18.33336
mc_KOOSANI,Koosani,-33.94116,18.68412
mc_KUYASA,Kuyasa,-33.79424,18.49804
mc_LA_PALOMA,La Paloma,-33.77624,18.57152
mc_LAGAN,Lagan,-33.89756,18.6626
mc_LAGOON_BEACH,Lagoon Beach,-33.7016,18.40764
mc_LANCASTER,Lancaster,-33.90784,18.42284
mc_LANGEBERG,Langeberg,-33.90968,18.48768
mc_LAWLEY,Lawley,-33.71188,18.67012
mc_LE_SUEUR,Le Sueur,-34.09704,18.5298
mc_LEEUWEN,Leeuwen,-33.84688,18.36196
mc_LEWISHAM,Lewisham,-33.91564,18.35008
mc_LIGHTHOUSE,Lighthouse,-33.96704,18.69364
mc_LINDELA,Lindela,-34.07836,18.45516
mc_LINK,Link,-33.8162,18.3224
mc_LISBOA,Lisboa,-33.91844,18.39192
mc_LLANDUDNO,Llandudno,-33.8204,18.64944
mc_LOBELIA,Lobelia,-33.7958,18.44384
mc_LOCO,Loco,-33.75172,18.61796
mc_LONDON,London,-33.94348,18.30004
mc_LONGMARKET,Longmarket,-33.71356,18.6918
mc_LOOKOUT_HILL,Lookout Hill,-33.8528,18.57484
mc_LORD_CALEDON,Lord Caledon,-33.82624,18.66128
mc_LOSPERDS,Losperds,-33.94768,18.53412
mc_LOUWTJIE_ROTHMAN,Louwtjie Rothman,-33.97732,18.31744
mc_LOWER_BUITENKANT,Lower Buitenkant,-33.83192,18.61676
mc_LOWER_CAMPS_BAY,Lower Camps Bay,-34.01964,18.33076
mc_LOWER_CHURCH,Lower Church,-34.01724,18.59336
mc_LOWER_KLOOF,Lower Kloof,-34.08392,18.4956
mc_LOWER_PLEIN,Lower Plein,-33.70908,18.5562
mc_LOWER_RESERVOIR,Lower Reservoir,-33.7336,18.38988
mc_LOWER_VICTORIA,Lower Victoria,-34.04888,18.54584
mc_LOXTON_EAST,Loxton East,-33.9472,18.52772
mc_LOXTON_WEST,Loxton West,-34.02984,18.60188
mc_LUDWIGS_GARDEN,Ludwigs Garden,-33.71868,18.5194
mc_MADEIRA,Madeira,-33.80236,18.50352
mc_MAGNET,Magnet,-33.85824,18.48968
mc_MAIDENS_COVE,Maidens Cove,-33.793,18.55292
mc_MAINSTREAM,Mainstream,-33.78464,18.49032
mc_MAKABENI,Makabeni,-34.01816,18.54496
mc_MAKHANYA,Makhanya,-33.73408,18.46248
mc_MALVERN,Malvern,-33.7944,18.51332
mc_MANSFIELD,Mansfield,-33.85912,18.53872
mc_MARCONI,Marconi,-34.09356,18.36704
mc_MARGUERITE,Marguerite,-33.75184,18.40788
mc_MARIGOLD,Marigold,-33.97396,18.45196
mc_MARINA,Marina,-34.01572,18.48552
mc_MARINE,Marine,-33.74864,18.41752
mc_MARINE_CIRCLE,Marine Circle,-34.01436,18.59012
mc_MARLIN,Marlin,-33.71212,18.3482
mc_MARMION,Marmion,-33.74048,18.64836
mc_MAURITIUS,Mauritius,-33.97812,18.51308
mc_MEERMIN,Meermin,-33.81248,18.5232
mc_MELKBOSCH,Melkbosch,-33.93184,18.69884
mc_MELKBOSCH_VILLAGE,Melkbosch Village,-34.0664,18.52704
mc_MELKBOSSTRAND,Melkbosstrand,-33.76896,18.63232
mc_MERLOT,Merlot,-33.75316,18.45672
mc_MFUNDISWENI,Mfundisweni,-33.95864,18.64476
mc_MICHAELIS,Michaelis,-33.96108,18.63828
mc_MID_LONG,Mid Long,-34.0348,18.44992
mc_MID_LOOP,Mid Loop,-33.82288,18.48904
mc_MILNERTON,Milnerton,-33.86248,18.65396
mc_MILNERTON_LIGHTHOUSE,Milnerton Lighthouse,-33.96692,18.60616
mc_MITCHELLS_PLAIN,Mitchells Plain,-33.71436,18.63304
mc_MOLTENO,Molteno,-33.7942,18.57528
mc_MONTAGUE_GARDENS,Montague Gardens,-33.7642,18.42644
mc_MONTEZUMA,Montezuma,-33.86188,18.38224
mc_MONTREAL,Montreal,-33.75632,18.37964
mc_MONTREAL_SOUTH,Montreal South,-33.98956,18.5752
mc_MONTROSE,Montrose,-33.88876,18.45384
mc_MORAVIA,Moravia,-33.86388,18.30736
mc_MORGENSTER,Morgenster,-34.07536,18.38272
mc_MORNINGFIELD,Morningfield,-33.83668,18.34112
mc_MOUILLE_POINT,Mouille Point,-33.81864,18.59816
mc_MOUNT_RHODES,Mount Rhodes,-34.08528,18.34124
mc_MUSCADEL,Muscadel,-33.89436,18.3444
mc_NAMAR,Namar,-33.87164,18.31308
mc_NANTUCKET,Nantucket,-34.01768,18.50352
mc_NARCISSUS,Narcissus,-33.80776,18.34424
mc_NARWHAL,Narwhal,-33.89396,18.44532
mc_NAZARETH,Nazareth,-33.73792,18.63824
mc_NCUMO_EAST,Ncumo East,-33.88668,18.61908
mc_NCUMO_WEST,Ncumo West,-33.89032,18.62352
mc_NEIL_HARE,Neil Hare,-33.8076,18.4186
mc_NEPTUNE,Neptune,-33.98384,18.69824
mc_NEWLANDS,Newlands,-34.04788,18.69004
mc_NGCINGCU,Ngcingcu,-33.7444,18.65392
mc_NICOBAR,Nicobar,-34.02948,18.47344
mc_NOBEL_SQUARE,Nobel Square,-33.87204,18.38592
mc_NORTHSHORE,Northshore,-34.05784,18.512
mc_NTLAZANE,Ntlazane,-33.89196,18.41344
mc_OAKDALE,Oakdale,-33.78756,18.35028
mc_OAKLAND_HILLS,Oakland Hills,-33.95004,18.64628
mc_OASIS,Oasis,-34.09344,18.3508
mc_OCEAN_SPIRIT,Ocean Spirit,-33.73684,18.68844
mc_OCEANA,Oceana,-34.04244,18.61576
mc_OLD_BREAKWATER_PRISON,Old Breakwater Prison,-33.70276,18.43804
mc_OLD_FIRE_STATION,Old Fire Station,-33.98944,18.52924
mc_OMURAMBA,Omuramba,-33.96568,18.67352
mc_OSCAR_MPETHA,Oscar Mpetha,-34.01088,18.68584
mc_OUDEKRAAL,Oudekraal,-34.04608,18.41628
mc_OXFORD_EARL,Oxford Earl,-33.76172,18.59
mc_PAARDEN_EILAND,Paarden Eiland,-33.724,18.57408
mc_PAMA_WEST,Pama West,-33.89872,18.54932
mc_PARADISE,Paradise,-33.85,18.3084
mc_PARKLANDS_COLLEGE,Parklands College,-33.75776,18.49688
mc_PARKLANDS_MAIN,Parklands Main,-33.79248,18.63616
mc_PARKLANDS_MAIN_NORTH,Parklands Main North,-33.74764,18.33436
mc_PARKLANDS_MAIN_SOUTH,Parklands Main South,-33.86328,18.54568
mc_PARKLANDS_SECONDARY,Parklands Secondary,-33.81528,18.40856
mc_PARKVIEW,Parkview,-33.76436,18.60408
mc_PAULSBERG,Paulsberg,-33.71728,18.69388
mc_PELICAN,Pelican,-33.86872,18.5412
mc_PELLA_CENTRAL,Pella Central,-33.8508,18.47092
mc_PELLA_NORTH,Pella North,-33.86028,18.52432
mc_PELLA_SOUTH,Pella South,-33.91272,18.51872
mc_PERLEMOEN,Perlemoen,-33.9638,18.60584
mc_PETRUS,Petrus,-33.99356,18.51692
mc_PINTO,Pinto,-33.97784,18.59424
mc_PLATTEKLIP,Platteklip,-33.85616,18.47388
mc_PM_LOUW,Pm Louw,-34.08804,18.453
mc_PONTIAC,Pontiac,-34.00432,18.34552
mc_POPHAM,Popham,-34.05768,18.33396
mc_PORTERFIELD,Porterfield,-33.94776,18.44952
mc_PORTSWOOD,Portswood,-34.0016,18.37468
mc_POTSDAM,Potsdam,-34.04988,18.46048
mc_PRIMA,Prima,-33.96948,18.4208
mc_PROMENADE,Promenade,-33.72808,18.65584
mc_QUEBEC,Quebec,-33.87092,18.6552
mc_QUEENS,Queens,-33.8164,18.33112
mc_QUEENS_BEACH,Queens Beach,-34.0524,18.45396
mc_QUEST,Quest,-33.86612,18.42896
mc_RACECOURSE,Racecourse,-33.7218,18.647
mc_RADAR,Radar,-33.88064,18.39012
mc_RAVENSCRAIG,Ravenscraig,-33.84908,18.39964
mc_RAVENSTEYN,Ravensteyn,-33.82824,18.58592
mc_RAVENSWOOD,Ravenswood,-33.86892,18.31808
mc_RAYDEN,Rayden,-33.85548,18.61028
mc_RAYMOND,Raymond,-33.77904,18.52668
mc_REFINERY,Refinery,-33.94228,18.34076
mc_REYGERSDAL,Reygersdal,-34.07208,18.3884
mc_RHINE,Rhine,-33.70004,18.41276
mc_RIEBEECK,Riebeeck,-33.87884,18.59416
mc_RIEBEECKSTRAND,Riebeeckstrand,-33.82872,18.39652
mc_RIVERGATE_PRIMARY,Rivergate Primary,-33.84456,18.60904
mc_ROBBEN,Robben,-33.99868,18.60332
mc_ROBINVALE,Robinvale,-33.85748,18.61216
mc_ROCKLANDS,Rocklands,-33.74224,18.41432
mc_ROELAND,Roeland,-33.82776,18.519
mc_RONTREE,Rontree,-33.9998,18.36696
mc_ROODEHEK,Roodehek,-34.06676,18.40176
mc_ROYAL_ASCOT,Royal Ascot,-33.81512,18.45616
mc_RUSSEL,Russel,-34.0006,18.65284
mc_RUWENZORI,Ruwenzori,-34.06808,18.50948
mc_RUYTERPLAATS,Ruyterplaats,-33.71132,18.40068
mc_SAILORS_GREEN,Sailors Green,-33.9528,18.39956
mc_SALT_RIVER_HALL,Salt River Hall,-34.02512,18.4832
mc_SALT_RIVER_RAIL,Salt River Rail,-33.8414,18.57368
mc_SALT_RIVER_RAIL_NORTH,Salt River Rail North,-33.83404,18.63952
mc_SAMPSON,Sampson,-33.82304,18.34316
mc_SAND,Sand,-33.8844,18.32872
mc_SANDDRIFT,Sanddrift,-33.8076,18.63328
mc_SANDOWN,Sandown,-34.02548,18.63652
mc_SANDOWN_EAST,Sandown East,-34.09332,18.65568
mc_SAXONSEA_CLINIC,Saxonsea Clinic,-33.9866,18.36
mc_SAXONSEA_PRIMARY,Saxonsea Primary,-33.72872,18.56568
mc_SCOTT,Scott,-34.09184,18.4954
mc_SEA_POINT,Sea Point,-33.98796,18.34704
mc_SEA_POINT_HIGH,Sea Point High,-33.71012,18.44228
mc_SEA_POINT_POOL,Sea Point Pool,-33.99292,18.46076
mc_SEAL,Seal,-33.92156,18.6626
mc_SEASIDE_VILLAGE,Seaside Village,-33.72776,18.4432
mc_SECTION,Section,-33.7652,18.50608
mc_SESAME,Sesame,-33.7502,18.64248
mc_SHELL,Shell,-33.97608,18.57344
mc_SHERIDAN,Sheridan,-33.97828,18.43676
mc_SHERWOOD,Sherwood,-33.70788,18.46432
mc_SIGWELE,Sigwele,-33.92548,18.44936
mc_SILVERSTREAM,Silverstream,-33.81832,18.47708
mc_SKYE_WAY,Skye Way,-33.86252,18.53676
mc_SNOWDON,Snowdon,-33.7718,18.37852
mc_SOLDIER,Soldier,-33.87416,18.6726
mc_SOMERSET_HOSPITAL,Somerset Hospital,-33.95064,18.671
mc_SOUTHWARK,Southwark,-34.06488,18.4138
mc_SPARREBOS,Sparrebos,-33.90132,18.41776
mc_SPENCER,Spencer,-33.78964,18.50464
mc_SPINE,Spine,-33.72588,18.42896
mc_ST_BEDES,St Bedes,-33.8288,18.66608
mc_ST_GEORGES,St Georges,-33.91128,18.61708
mc_ST_JAMES,St James,-33.81704,18.55676
mc_ST_JOHNS_WOOD,St Johns Wood,-33.86408,18.63128
mc_ST_MICHAELS,St Michaels,-33.77348,18.44624
mc_STABLES_TURNAROUND,Stables Turnaround,-33.76232,18.48568
mc_STADIUM,Stadium,-33.70576,18.54568
mc_STARKE,Starke,-33.77,18.54532
mc_STATION,Station,-33.77324,18.55676
mc_STEVE_BIKO,Steve Biko,-33.8338,18.61896
mc_STIRLING,Stirling,-34.04952,18.49136
mc_STRAND,Strand,-33.83904,18.42588
mc_STUDIO,Studio,-33.75716,18.58916
mc_SUNSET_BEACH,Sunset Beach,-33.74376,18.5944
mc_SURREY,Surrey,-33.79852,18.4284
mc_SUSAN,Susan,-33.92304,18.62776
mc_SWAWEL,Swawel,-33.84964,18.304
mc_SWIFT,Swift,-33.82616,18.3126
mc_TABLE_VIEW,Table View,-33.77644,18.5902
mc_TAFELSIG_PRIMARY,Tafelsig Primary,-34.05916,18.36404
mc_THE_CASTLE,The Castle,-34.07284,18.5578
mc_THE_GLEN,The Glen,-33.80032,18.57576
mc_THIBAULT_SQUARE,Thibault Square,-33.96456,18.55628
mc_THREE_ANCHOR_BAY,Three Anchor Bay,-33.95644,18.49732
mc_TIJGERHOF,Tijgerhof,-34.01248,18.46728
mc_TOM_HENSHILWOOD,Tom Henshilwood,-33.71096,18.41716
mc_TORTELDUIF,Tortelduif,-33.80496,18.57452
mc_TRAMWAY,Tramway,-34.04332,18.65648
mc_TRITONIA,Tritonia,-33.84156,18.30852
mc_TRYALL,Tryall,-33.72304,18.35952
mc_TRYALL_WEST,Tryall West,-33.71268,18.5378
mc_TSITSIKAMMA,Tsitsikamma,-33.71148,18.38832
mc_TURF_CLUB,Turf Club,-33.71448,18.55624
mc_TUTU,Tutu,-33.95052,18.4084
mc_UNION,Union,-33.8748,18.34024
mc_UPPER_BUITENKANT,Upper Buitenkant,-33.8836,18.69156
mc_UPPER_KLOOF,Upper Kloof,-34.0238,18.5594
mc_UPPER_LONG,Upper Long,-33.7174,18.41888
mc_UPPER_LOOP,Upper Loop,-33.82824,18.68032
mc_UPPER_MOUNTAIN,Upper Mountain,-33.8894,18.3508
mc_UPPER_ORANGE,Upper Orange,-33.9522,18.64556
mc_UPPER_PORTSWOOD,Upper Portswood,-33.75124,18.53016
mc_UPPER_ROODEBLOEM,Upper Roodebloem,-33.91572,18.51004
mc_UPPER_SALT_RIVER,Upper Salt River,-33.79652,18.4752
mc_VALDERRAMA,Valderrama,-33.83608,18.678
mc_VALLEY,Valley,-33.75584,18.39644
mc_VALLEYFIELD,Valleyfield,-34.07976,18.45656
mc_VICTORIA,Victoria,-33.81396,18.46348
mc_VIOLA,Viola,-34.0284,18.37504
mc_VRYSTAAT,Vrystaat,-33.98576,18.38368
mc_VUYANI,Vuyani,-33.98348,18.6878
mc_WALDECK,Waldeck,-33.82792,18.332
mc_WALWORTH,Walworth,-33.7032,18.31152
mc_WANDSWORTH,Wandsworth,-34.04732,18.4448
mc_WATERFORD,Waterford,-33.8948,18.4104
mc_WATERFRONT,Waterfront,-33.9702,18.67496
mc_WATERFRONT_SILO,Waterfront Silo,-33.74036,18.527
mc_WATERS_EDGE,Waters Edge,-33.77664,18.34864
mc_WATERSTONE,Waterstone,-33.87432,18.56512
mc_WATERVIEW,Waterview,-33.76424,18.55316
mc_WATERVILLE,Waterville,-33.93804,18.69772
mc_WELGEMEEND,Welgemeend,-33.8666,18.4326
mc_WESFLEUR_HOSPITAL,Wesfleur Hospital,-33.84604,18.48396
mc_WESFLEUR_PARK,Wesfleur Park,-33.97504,18.57348
mc_WEST_BEACH,West Beach,-33.94872,18.36152
mc_WEXFORD,Wexford,-33.80844,18.51908
mc_WHALE_ROCK,Whale Rock,-33.88756,18.40408
mc_WIGTOWN,Wigtown,-33.92116,18.51676
mc_WINDSOR,Windsor,-34.05056,18.4942
mc_WOOD,Wood,-33.83768,18.30184
mc_WOOD_CENTRAL,Wood Central,-33.99816,18.69544
mc_WOOD_NORTH,Wood North,-33.78336,18.47136
mc_WOODBRIDGE,Woodbridge,-34.05736,18.42544
mc_WOODFORD,Woodford,-34.04156,18.30876
mc_WOODLANDS,Woodlands,-33.75108,18.5384
mc_WOODSTOCK,Woodstock,-33.73464,18.3972
mc_WOODVILLE,Woodville,-33.95448,18.6704
mc_ZASTRON,Zastron,-33.78888,18.62516
mc_ZOARVLEI,Zoarvlei,-33.94656,18.48224
mc_ZONNEBLOEM,Zonnebloem,-33.94848,18.42652
