stop_id,stop_code,stop_name,stop_desc,stop_lat,stop_lon,location_type,parent_station
mr_ATL,,ATHLONE,,-33.96089,18.501622,0,
mr_AVD,,AVONDALE,,-33.897776,18.593072,0,
mr_BOH,,BELHAR,,-33.939441,18.609057,0,
mr_BLE,,BELLVILLE,,-33.906298,18.627491,0,
mr_BKH,,BLACKHEATH,,-33.964266,18.701263,0,
mr_BTL,,BONTEHEUWEL,,-33.942095,18.550369,0,
mr_BKL,,BRACKENFELL,,-33.881123,18.688336,0,
mr_CMC,,CLAREMONT,,-33.981481,18.467184,0,
mr_CRF,,CRAWFORD,,-33.976422,18.501359,0,
mr_DEG,,DE GRENDEL,,-33.893501,18.578732,0,
mr_DPE,,DIEPRIVIER,,-34.035454,18.466953,0,
mr_EER,,EERSTE RIVER,,-34.000743,18.730914,0,
mr_EIK,,EIKENFONTEIN,,-33.857134,18.71127,0,
mr_ERH,,ELSIES RIVER,,-33.91054,18.569083,0,
mr_FAU,,FAURE,,-34.026236,18.74719,0,
mr_FGV,,FIRGROVE,,-34.055629,18.792935,0,
mr_GCR,,GLENCAIRN,,-34.164123,18.43203,0,
mr_HRD,,HARFIELD RD,,-33.988286,18.471187,0,
mr_HAZ,,HAZENDAL,,-33.953312,18.502537,0,
mr_HEH,,HEATHFIELD,,-34.046077,18.465594,0,
mr_HED,,HEIDEVELD,,-33.969678,18.561797,0,
mr_KAB,,KALK BAY,,-34.126299,18.449956,0,
mr_KTE,,KAPTEINSKLIP,,-34.067222,18.620684,0,
mr_KLW,,KENILWORTH,,-33.995285,18.473,0,
mr_KYA,,KHAYELITSHA,,-34.047985,18.670772,0,
mr_KOB,,KOEBERG RD,,-33.925787,18.47792,0,
mr_KAI,,KRAAIFONTEIN,,-33.847178,18.723839,0,
mr_LSD,,LAKESIDE,,-34.088484,18.462489,0,
mr_LAG,,LANGA,,-33.9392,18.52966,0,
mr_LNE,,LANSDOWNE,,-33.987594,18.50394,0,
mr_LSN,,LAVISTOWN,,-33.943277,18.584198,0,
mr_LEN,,LENTEGEUR,,-34.034437,18.611373,0,
mr_MLD,,MAITLAND,,-33.924712,18.487822,0,
mr_MCF,,MANDALAY,,-34.018928,18.624421,0,
mr_MNV,,MONTE VISTA,,-33.891647,18.548935,0,
mr_MWY,,MOWBRAY,,-33.946733,18.473885,0,
mr_MZR,,MUIZENBERG,,-34.109571,18.467916,0,
mr_MTX,,MUTUAL,,-33.921749,18.513696,0,
mr_NBI,,NDABENI,,-33.928238,18.49542,0,
mr_NTG,,NETREG,,-33.952749,18.563571,0,
mr_NDL,,NEWLANDS,,-33.974194,18.46761,0,
mr_NOL,,NOLUNGILE,,-34.016939,18.648924,0,
mr_NNK,,NONKQUBELA,,-34.026783,18.663078,0,
mr_NAG,,NYANGA,,-33.993111,18.559914,0,
mr_OVY,,OBSERVATORY,,-33.937882,18.471405,0,
mr_OOZ,,OOSTERZEE,,-33.899941,18.607073,0,
mr_OTY,,OTTERY,,-34.013462,18.495211,0,
mr_POW,,PAROW,,-33.909575,18.586203,0,
mr_PEI,,PENTECH,,-33.934832,18.645965,0,
mr_PPI,,PHILIPPI,,-34.013361,18.585385,0,
mr_PND,,PINELANDS,,-33.940121,18.490662,0,
mr_PMS,,PLUMSTEAD,,-34.022033,18.469739,0,
mr_RET,,RETREAT,,-34.059839,18.462936,0,
mr_RCH,,RONDEBOSCH,,-33.962161,18.472369,0,
mr_RSN,,ROSEBANK,,-33.954724,18.473143,0,
mr_SRP,,SAREPTA,,-33.926513,18.661384,0,
mr_SSW,,SOMERSET WEST,,-34.084224,18.841436,0,
mr_SFS,,SOUTHFIELD,,-34.032969,18.481599,0,
mr_STJ,,ST JAMES,,-34.119311,18.45842,0,
mr_STX,,STEENBERG,,-34.076405,18.463689,0,
mr_STH,,STEURHOF,,-34.028836,18.468908,0,
mr_SKD,,STIKLAND,,-33.904768,18.656366,0,
mr_STD,,STRAND,,-34.115026,18.832457,0,
mr_THO,,THORNTON,,-33.918905,18.532447,0,
mr_TYG,,TYGERBERG,,-33.907388,18.601514,0,
mr_UBL,,UNIBELL,,-33.937044,18.62858,0,
mr_VSL,,VAN DER STEL,,-34.09504,18.852837,0,
mr_VSO,,VASCO,,-33.911215,18.558429,0,
mr_WTN,,WETTON,,-34.001906,18.501037,0,
mr_WTE,,WITTEBOME,,-34.014044,18.470709,0,
mr_WDC,,WOODSTOCK,,-33.925483,18.445608,0,
mr_WYB,,WYNBERG,,-34.004856,18.471217,0,
mr_YPT,,YSTERPLAAT,,-33.919921,18.476845,0,
mc_1,,Atlantis,,18.491651000577,-33.5639050003842,0,
mc_2,,Arion,,18.4962009993589,-33.5590790000669,0,
mc_3,,Charel Uys North,,18.493862000137,-33.5556980004651,0,
mc_4,,Montreal,,18.4934880000225,-33.5521349993791,0,
mc_5,,Tsitsikamma,,18.4944239998651,-33.5474980001081,0,
mc_6,,Silverstream,,18.4826680004798,-33.5205069996256,0,
mc_7,,PM Louw,,18.477772999369,-33.5171260004898,0,
mc_8,,Enon,,18.4748429996598,-33.5131880001413,0,
mc_9,,Goedverwacht,,18.4710100000646,-33.5130619996001,0,
mc_10,,Paradise,,18.4664679994253,-33.512882999483,0,
mc_11,,Crown,,18.4639100004657,-33.5140250001812,0,
mc_12,,Crown,,18.4639100004657,-33.5140250001812,0,
mc_13,,Paradise,,18.4662099996118,-33.5132240005545,0,
mc_14,,Goedverwacht,,18.4720189995376,-33.5123440005464,0,
mc_15,,Enon,,18.474575000593,-33.5127810003185,0,
mc_16,,PM Louw,,18.4777360002361,-33.517075000321,0,
mc_17,,Silverstream,,18.4826710005043,-33.5205070002244,0,
mc_18,,Tsitsikamma,,18.4944240001978,-33.5475500001533,0,
mc_19,,Montreal,,18.4934870001705,-33.5521379995493,0,
mc_20,,Charel Uys North,,18.4938700001346,-33.5557150002438,0,
mc_21,,Arion,,18.4962090001716,-33.5591070003792,0,
mc_22,,Atlantis,,18.4918109998214,-33.5638499999132,0,
mc_23,,Clearwater,,18.4974589996385,-33.55426499992,0,
mc_24,,Sampson,,18.4974000003207,-33.5641069989651,0,
mc_25,,Carmel,,18.4998950002397,-33.562582999891,0,
mc_26,,Caelian,,18.5018470006163,-33.5595450000922,0,
mc_27,,Harrow,,18.5049920006141,-33.5575749998093,0,
mc_28,,Malvern,,18.5018630000251,-33.5553689996195,0,
mc_29,,Deerlodge,,18.4977919995189,-33.5513450000838,0,
mc_30,,Tsitsikamma,,18.4944239998651,-33.5474980001081,0,
mc_31,,Frans,,18.4808240002151,-33.5138870000444,0,
mc_32,,Boat Bay,,18.3867629996159,-33.9160199996574,0,
mc_33,,Knysna,,18.5016079996472,-33.5502520007733,0,
mc_34,,Denne West,,18.4740169997196,-33.5083969991448,0,
mc_35,,Sampson,,18.4976550004329,-33.5641689997687,0,
mc_36,,Carmel,,18.4998520003225,-33.5626899997994,0,
mc_37,,Caelian,,18.5018299999033,-33.5596159993516,0,
mc_38,,Harrow,,18.5049370009478,-33.5576389994846,0,
mc_39,,Malvern,,18.5012779996891,-33.5550859998053,0,
mc_40,,Deerlodge,,18.4978460005266,-33.551401999793,0,
mc_41,,Tsitsikamma,,18.4944240001978,-33.5475500001533,0,
mc_42,,Frans,,18.4807669996484,-33.5139780001793,0,
mc_43,,Johannes,,18.4786830001499,-33.5137730005289,0,
mc_44,,Enon,,18.474575000593,-33.5127810003185,0,
mc_45,,Atlantis,,18.491651000577,-33.5639050003842,0,
mc_46,,Wesfleur Park,,18.4882319994596,-33.5587939996839,0,
mc_47,,Saxonsea Primary,,18.4886039998457,-33.55505699994,0,
mc_48,,Saxonsea Clinic,,18.4884319986989,-33.5501819994531,0,
mc_49,,Hermes,,18.4861859993547,-33.5474900005244,0,
mc_50,,Lisboa,,18.4841389997194,-33.544660000155,0,
mc_51,,Atlantis,,18.4918109998214,-33.5638499999132,0,
mc_52,,Wesfleur Park,,18.4883289995323,-33.5586790003469,0,
mc_53,,Soxonsea Primary,,18.4887400000398,-33.5554640006631,0,
mc_54,,Saxonsea Clinic,,18.4885479990009,-33.5503369997189,0,
mc_55,,Kehrweider,,18.487336999874,-33.5481630001824,0,
mc_56,,Magnet,,18.4905139996166,-33.5464349999102,0,
mc_57,,Mauritius,,18.4878390007344,-33.5441380001639,0,
mc_58,,Atlantis,,18.491651000577,-33.5639050003842,0,
mc_59,,Wesfleur Park,,18.4882319994596,-33.5587939996839,0,
mc_60,,Fernande,,18.48856899949,-33.5552570004061,0,
mc_61,,Valleyfield,,18.4836980007279,-33.5548870005185,0,
mc_62,,Goede Hoop,,18.4848940000572,-33.5509049999405,0,
mc_63,,Saxonsea Clinic,,18.4884319986989,-33.5501819994531,0,
mc_64,,Hermes,,18.4861859993547,-33.5474900005244,0,
mc_65,,Lisboa,,18.4841389997194,-33.544660000155,0,
mc_66,,Lisboa,,18.4841389997194,-33.544660000155,0,
mc_67,,Mauritius,,18.4878390007344,-33.5441380001639,0,
mc_68,,Magnet,,18.4905139996166,-33.5464349999102,0,
mc_69,,Kehrweider,,18.487336999874,-33.5481630001824,0,
mc_70,,Saxonsea Clinic,,18.4885479990009,-33.5503369997189,0,
mc_71,,Goede Hoop,,18.4848310000905,-33.5508840009777,0,
mc_72,,Valleyfield,,18.4837009998837,-33.5548880000965,0,
mc_73,,Saxonsea Primary,,18.4887400000398,-33.5554640006631,0,
mc_74,,Wesfleur Park,,18.4883289995323,-33.5586790003469,0,
mc_75,,Atlantis,,18.4918109998214,-33.5638499999132,0,
mc_76,,Atlantis,,18.4918109998214,-33.5638499999132,0,
mc_77,,Parkview,,18.488346999985,-33.5655769989953,0,
mc_78,,Gothenburg,,18.4832479999514,-33.5680760003848,0,
mc_79,,Colebrook,,18.4822190012221,-33.5707999994028,0,
mc_80,,Bengal,,18.4860429996676,-33.5714009992281,0,
mc_81,,Alberto,,18.4901719996833,-33.5719270002393,0,
mc_82,,Disa,,18.4940000002231,-33.5736480000386,0,
mc_83,,Bottlebrush,,18.4966719995108,-33.5775890002868,0,
mc_84,,Berzelia,,18.4924610006289,-33.5777290004741,0,
mc_85,,Starke,,18.4872200001484,-33.579994999693,0,
mc_86,,Charles Duminy,,18.4846919993639,-33.5798920008572,0,
mc_87,,Tom Henshilwood,,18.4829559988578,-33.5832769995641,0,
mc_88,,John Van Niekerk,,18.4782279992809,-33.5844479999354,0,
mc_89,,Neil Hare,,18.4744349996766,-33.5870829988851,0,
mc_90,,Charles Matthews,,18.4814210005446,-33.5912979998202,0,
mc_91,,Atlantis,,18.4918230004362,-33.5638630002054,0,
mc_92,,Lisboa,,18.4841389997194,-33.544660000155,0,
mc_93,,Starke,,18.4872219998857,-33.5799879996143,0,
mc_94,,Neil Hare,,18.4743170009529,-33.58702500028,0,
mc_95,,Charles Matthews,,18.4814159993893,-33.5912729999626,0,
mc_96,,John Van Niekerk,,18.4785570006018,-33.5842950001851,0,
mc_97,,Tom Henshilwood,,18.4829119994001,-33.583268000384,0,
mc_98,,Charles Duminy,,18.4842959999369,-33.5801059998026,0,
mc_99,,Berzelia,,18.4929849992314,-33.5778120007318,0,
mc_100,,Bottlebrush,,18.4972520002401,-33.5774120003531,0,
mc_101,,Disa,,18.4938640000423,-33.5735870010882,0,
mc_102,,Alberto,,18.490294999993,-33.5719829995832,0,
mc_103,,Bengal,,18.4861130013476,-33.5713930009098,0,
mc_104,,Colebrook,,18.4822360001976,-33.5709159999479,0,
mc_105,,Gothenburg,,18.4831939998358,-33.5681929997298,0,
mc_106,,Pella North,,18.5208419997305,-33.5359259996334,0,
mc_107,,Pella Central,,18.5206810004562,-33.5388719999446,0,
mc_108,,Pella South,,18.5196509987486,-33.5424220005925,0,
mc_109,,Tsitsikamma,,18.4944240001978,-33.5475500001533,0,
mc_110,,Montreal,,18.4934870001705,-33.5521379995493,0,
mc_111,,Charel Uys North,,18.4938700001346,-33.5557150002438,0,
mc_112,,Arion,,18.4962090001716,-33.5591070003792,0,
mc_113,,Atlantis,,18.4918109998214,-33.5638499999132,0,
mc_114,,Atlantis,,18.491651000577,-33.5639050003842,0,
mc_115,,Arion,,18.4962009993589,-33.5590790000669,0,
mc_116,,Charel Uys North,,18.493862000137,-33.5556980004651,0,
mc_117,,Montreal,,18.4934880000225,-33.5521349993791,0,
mc_118,,Tsitsikamma,,18.4944239998651,-33.5474980001081,0,
mc_119,,Pella South,,18.5201600001716,-33.5423890008408,0,
mc_120,,Pella Central,,18.5206750007502,-33.5388390000741,0,
mc_121,,Pella North,,18.5203870005493,-33.5369720007298,0,
mc_122,,Atlantis,,18.491651000577,-33.5639050003842,0,
mc_123,,Brutus,,18.4912430005223,-33.5573000005928,0,
mc_124,,Sherwood,,18.4934580006538,-33.5554979998654,0,
mc_125,,Clearwater,,18.4975890003551,-33.5542139999761,0,
mc_126,,Montezuma,,18.500594999363,-33.5525909993263,0,
mc_127,,Newlands,,18.4984749997376,-33.5511110005607,0,
mc_128,,Knysna,,18.5016079996472,-33.5502520007733,0,
mc_129,,Sherwood,,18.4944919997458,-33.5552079998422,0,
mc_130,,Brutus,,18.4915110002532,-33.5567529995875,0,
mc_131,,Atlantis,,18.4918109998214,-33.5638499999132,0,
mc_132,,Lagan,,18.5020149992012,-33.5546700003532,0,
mc_133,,Kolgha,,18.5041529993925,-33.5540490000547,0,
mc_134,,Reygersdal,,18.4940510008902,-33.5667140000898,0,
mc_135,,Flamingo Park,,18.4967070005088,-33.5683059997902,0,
mc_136,,Malgas,,18.4997120006022,-33.5708520000839,0,
mc_137,,Jacana,,18.5013830003366,-33.5701629999945,0,
mc_138,,Patrys,,18.5030559994912,-33.5708809999415,0,
mc_139,,Swawel,,18.5065599997263,-33.5687750004924,0,
mc_140,,Tortelduif,,18.5074989992865,-33.565076999956,0,
mc_141,,Robinvale,,18.5041820001018,-33.5659579994431,0,
mc_142,,Curlew,,18.4999959991988,-33.5658460008009,0,
mc_143,,Sampson,,18.4976550004329,-33.5641689997687,0,
mc_144,,Atlantis,,18.4918230004362,-33.5638630002054,0,
mc_145,,Atlantis,,18.491651000577,-33.5639050003842,0,
mc_146,,Atlantis,,18.4918109998214,-33.5638499999132,0,
mc_147,,Sampson,,18.4974000003207,-33.5641069989651,0,
mc_148,,Curlew,,18.4996989999706,-33.5655470000695,0,
mc_149,,Robinvale,,18.5044200002391,-33.5659310007166,0,
mc_150,,Patrys,,18.5032979996606,-33.5709660007509,0,
mc_151,,Swawel,,18.5065599996661,-33.5688360005521,0,
mc_152,,Tortelduif,,18.5068330007513,-33.5650700001147,0,
mc_153,,Jacana,,18.5014659991404,-33.5702350000569,0,
mc_154,,Malgas,,18.4997759996026,-33.5708310002312,0,
mc_155,,Flamingo Park,,18.496879999568,-33.5684869994107,0,
mc_156,,Reygersdal,,18.4939599991229,-33.5666700005712,0,
mc_157,,Atlantis,,18.491651000577,-33.5639050003842,0,
mc_158,,Atlantis,,18.491651000577,-33.5639050003842,0,
mc_159,,Arion,,18.4962090001716,-33.5591070003792,0,
mc_160,,Charel Uys North,,18.4938700001346,-33.5557150002438,0,
mc_161,,Sherwood,,18.4944919997458,-33.5552079998422,0,
mc_162,,Clearwater,,18.4974589996385,-33.55426499992,0,
mc_163,,Lagan,,18.5020149992012,-33.5546700003532,0,
mc_164,,Kolgha,,18.5041529993925,-33.5540490000547,0,
mc_165,,Insiswa,,18.5046110006656,-33.5512799998464,0,
mc_166,,Knysna,,18.5016079996472,-33.5502520007733,0,
mc_167,,Saxonsea Clinic,,18.4884319986989,-33.5501819994531,0,
mc_168,,Kehrweider,,18.487336999874,-33.5481630001824,0,
mc_169,,Magnet,,18.4905139996166,-33.5464349999102,0,
mc_170,,Mauritius,,18.4878390007344,-33.5441380001639,0,
mc_171,,Lisboa,,18.4841389997194,-33.544660000155,0,
mc_172,,Hermes,,18.4861859993547,-33.5474900005244,0,
mc_173,,Saxonsea Clinic,,18.4885479990009,-33.5503369997189,0,
mc_174,,Goede Hoop,,18.4848359999363,-33.5508860005145,0,
mc_175,,Valleyfield,,18.4836980007279,-33.5548870005185,0,
mc_176,,Fernande,,18.48856899949,-33.5552570004061,0,
mc_177,,Wesfleur Park,,18.4882319994596,-33.5587939996839,0,
mc_178,,Atlantis,,18.4918230004362,-33.5638630002054,0,
mc_179,,Parkview,,18.4883909995724,-33.5655939996914,0,
mc_180,,Gothenburg,,18.4832479999514,-33.5680760003848,0,
mc_181,,Colebrook,,18.4822190012221,-33.5707999994028,0,
mc_182,,Bengal,,18.4860429996676,-33.5714009992281,0,
mc_183,,Alberto,,18.4901719996833,-33.5719270002393,0,
mc_184,,Disa,,18.4940000002231,-33.5736480000386,0,
mc_185,,Bottlebrush,,18.4966719995108,-33.5775890002868,0,
mc_186,,Berzelia,,18.4924610006289,-33.5777290004741,0,
mc_187,,Dahlia,,18.489433000224,-33.5743419995723,0,
mc_188,,Grosvenor,,18.4905269999943,-33.5724959997814,0,
mc_189,,Charel Uys,,18.4924149992296,-33.5698050003829,0,
mc_190,,Reygersdal,,18.4939599991229,-33.5666700005712,0,
mc_191,,Atlantis,,18.491651000577,-33.5639050003842,0,
mc_192,,Atlantis,,18.4918230004362,-33.5638630002054,0,
mc_193,,Reygersdal,,18.4940510008902,-33.5667140000898,0,
mc_194,,Flamingo Park,,18.4967070005088,-33.5683059997902,0,
mc_195,,Magnolia,,18.4985380004053,-33.5714740003521,0,
mc_196,,Starling,,18.5011320009205,-33.5738510001228,0,
mc_197,,Starling,,18.5011320009205,-33.5738510001228,0,
mc_198,,Kerria Primary,,18.4986480000893,-33.5770069999021,0,
mc_199,,Bottlebrush,,18.4966719995108,-33.5775890002868,0,
mc_200,,Begonia,,18.4976689998508,-33.5806490008362,0,
mc_201,,Aloe,,18.5018099996838,-33.5804649995951,0,
mc_202,,Acacia,,18.5030339994721,-33.5795270006419,0,
mc_203,,Azalea,,18.5028519990497,-33.5758159994738,0,
mc_204,,Magnolia,,18.4986389998328,-33.5716789997652,0,
mc_205,,Magnolia,,18.4986290000425,-33.5716589998164,0,
mc_206,,Malgas,,18.4998900002508,-33.5707950000012,0,
mc_207,,Jacana,,18.5013830003366,-33.5701629999945,0,
mc_208,,Patrys,,18.5055829998224,-33.5714799996941,0,
mc_209,,Swawel,,18.5065599997263,-33.5687750004924,0,
mc_210,,Tortelduif,,18.5067450006527,-33.5650690001803,0,
mc_211,,Robinvale,,18.5041820001018,-33.5659579994431,0,
mc_212,,Curlew,,18.4999959991988,-33.5658460008009,0,
mc_213,,Carmel,,18.4998950002397,-33.562582999891,0,
mc_214,,Cealian,,18.5018470006163,-33.5595450000922,0,
mc_215,,Harrow,,18.5049920006141,-33.5575749998093,0,
mc_216,,Malvern,,18.5018630000251,-33.5553689996195,0,
mc_217,,Deerlodge,,18.4977919995189,-33.5513450000838,0,
mc_218,,Montreal,,18.4934870001705,-33.5521379995493,0,
mc_219,,Charel Uys North,,18.4938700001346,-33.5557150002438,0,
mc_220,,Arion,,18.4962090001716,-33.5591070003792,0,
mc_221,,Atlantis,,18.4918109998214,-33.5638499999132,0,
mc_222,,Starke,,18.4872219998857,-33.5799879996143,0,
mc_223,,Charel Uys South,,18.486192000983,-33.5833559996784,0,
mc_224,,Gerwyn Owen,,18.4813839998846,-33.5884020000624,0,
mc_225,,Duynefontein,,18.4562660006991,-33.6903770006158,0,
mc_226,,Wanderlust,,18.4560859990264,-33.7008790005923,0,
mc_227,,Blaauwe Berg,,18.4556569998072,-33.7255610001023,0,
mc_228,,Melkbosstrand,,18.4423399996427,-33.730857999922,0,
mc_229,,Table View,,18.4888339991628,-33.8247679996143,0,
mc_230,,Neil Hare,,18.4743190003111,-33.5870259995244,0,
mc_231,,Dahlia,,18.489433000224,-33.5743419995723,0,
mc_232,,Grosvenor,,18.4905269999943,-33.5724959997814,0,
mc_233,,Charel Uys,,18.4924149992296,-33.5698050003829,0,
mc_234,,Reygersdal,,18.4939599991229,-33.5666700005712,0,
mc_235,,Atlantis,,18.491651000577,-33.5639050003842,0,
mc_236,,Omuramba,,18.5124849994102,-33.8682210005325,0,
mc_237,,Royal Ascot,,18.5028199996686,-33.8630120000401,0,
mc_238,,Racecourse,,18.5003609996097,-33.8613909997272,0,
mc_239,,Sunset Beach,,18.4963030002782,-33.8532740001111,0,
mc_240,,Porterfield,,18.4885540000921,-33.8150589998875,0,
mc_241,,Quebec,,18.3837330006121,-33.9526039998737,0,
mc_242,,Sandown,,18.4842690001081,-33.8069110003287,0,
mc_243,,Driftwood,,18.4554299997052,-33.7414060003898,0,
mc_244,,Birkenhead,,18.4554600001642,-33.7358970003948,0,
mc_245,,Brittlestar,,18.4529180000535,-33.7345779996487,0,
mc_246,,Atlantic Beach,,18.4473369999113,-33.7322300003074,0,
mc_247,,Atlantis,,18.4918109998214,-33.5638499999132,0,
mc_248,,Omuramba,,18.5124509997956,-33.8682029998126,0,
mc_249,,Royal Ascot,,18.5027989992866,-33.863001000517,0,
mc_250,,Sunset Beach,,18.4963090004082,-33.853301999943,0,
mc_251,,Racecourse,,18.5003670006396,-33.8613840007859,0,
mc_252,,Table View,,18.4888339991628,-33.8247679996143,0,
mc_253,,Porterfield,,18.4886030008114,-33.8150500005533,0,
mc_254,,Sandown,,18.4842739993967,-33.8069209999691,0,
mc_255,,Driftwood,,18.455428999648,-33.7414869999603,0,
mc_256,,Birkenhead,,18.4554620005712,-33.7358469999344,0,
mc_257,,Brittlestar,,18.4529140002407,-33.7345719999762,0,
mc_258,,Atlantic Beach,,18.4474030003139,-33.7322170005398,0,
mc_259,,Melkbosstrand,,18.4423630005377,-33.7308330005426,0,
mc_260,,Blaauwe Berg,,18.45481299965,-33.7261180006589,0,
mc_261,,Wanderlust,,18.4560849993657,-33.7009249999403,0,
mc_262,,Duynefontein,,18.4562620000397,-33.6906150000569,0,
mc_263,,Ravensteyn,,18.3849119995519,-33.9571750006426,0,
mc_264,,Camps Bay,,18.3788370002289,-33.9500120003367,0,
mc_265,,Neil Hare,,18.4743170009529,-33.58702500028,0,
mc_266,,Table View,,18.4888339991628,-33.8247679996143,0,
mc_267,,Popham,,18.4843600006461,-33.8235169998394,0,
mc_268,,Paradise,,18.4664679994253,-33.512882999483,0,
mc_269,,Goedverwacht,,18.4710100000646,-33.5130619996001,0,
mc_270,,Lord Caledon,,18.4743780005412,-33.5109940005259,0,
mc_271,,Denne West,,18.4740169997196,-33.5083969991448,0,
mc_272,,Denne East,,18.4788420002111,-33.5100649990207,0,
mc_273,,Frans,,18.4808240002151,-33.5138870000444,0,
mc_274,,Pella South,,18.5196509987486,-33.5424220005925,0,
mc_275,,Pella Central,,18.5206810004562,-33.5388719999446,0,
mc_276,,Pella North,,18.5203870005493,-33.5369720007298,0,
mc_277,,Pella Central,,18.5206750007502,-33.5388390000741,0,
mc_278,,Pella South,,18.5201600001716,-33.5423890008408,0,
mc_279,,Tsitsikamma,,18.4944239998651,-33.5474980001081,0,
mc_280,,Montreal,,18.4934880000225,-33.5521349993791,0,
mc_281,,Charel Uys North,,18.493862000137,-33.5556980004651,0,
mc_282,,Arion,,18.4962009993589,-33.5590790000669,0,
mc_283,,Atlantis,,18.491651000577,-33.5639050003842,0,
mc_284,,Silverstream,,18.4826710005043,-33.5205070002244,0,
mc_285,,PM Louw,,18.4777360002361,-33.517075000321,0,
mc_286,,Enon,,18.474575000593,-33.5127810003185,0,
mc_287,,Enon,,18.474575000593,-33.5127810003185,0,
mc_288,,Goedverwacht,,18.4720189995376,-33.5123440005464,0,
mc_289,,Paradise,,18.4662099996118,-33.5132240005545,0,
mc_290,,Crown,,18.4639100004657,-33.5140250001812,0,
mc_291,,Gerwyn Owen,,18.4813169992642,-33.588408999746,0,
mc_292,,Charel Uys South,,18.4861070005382,-33.5836219998018,0,
mc_293,,Starke,,18.4872200001484,-33.579994999693,0,
mc_294,,Dahlia,,18.489500000845,-33.5742289994345,0,
mc_295,,Grosvenor,,18.4909549998504,-33.5718420004405,0,
mc_296,,Charel Uys,,18.4925570001202,-33.5696059996035,0,
mc_297,,Reygersdal,,18.4940510008902,-33.5667140000898,0,
mc_298,,Atlantis,,18.4918109998214,-33.5638499999132,0,
mc_299,,Parkview,,18.4883400001936,-33.5655739996555,0,
mc_300,,Atlantis,,18.491651000577,-33.5639050003842,0,
mc_301,,Kuyasa,,18.6926340001169,-34.0555760004407,0,
mc_302,,Parkview,,18.4883909995724,-33.5655939996914,0,
mc_303,,Gothenburg,,18.4832479999514,-33.5680760003848,0,
mc_304,,Arion,,18.4962090001716,-33.5591070003792,0,
mc_305,,Colebrook,,18.4822190012221,-33.5707999994028,0,
mc_306,,Charel Uys North,,18.4938700001346,-33.5557150002438,0,
mc_307,,Bengal,,18.4860429996676,-33.5714009992281,0,
mc_308,,Montreal,,18.4934870001705,-33.5521379995493,0,
mc_309,,Alberto,,18.4901719996833,-33.5719270002393,0,
mc_310,,Tsitsikamma,,18.4944240001978,-33.5475500001533,0,
mc_311,,Disa,,18.4940000002231,-33.5736480000386,0,
mc_312,,Pella South,,18.5196509987486,-33.5424220005925,0,
mc_313,,Pella North,,18.5208419997305,-33.5359259996334,0,
mc_314,,Berzelia,,18.493000000058,-33.5778139998237,0,
mc_315,,Pella North,,18.5203870005493,-33.5369720007298,0,
mc_316,,Starke,,18.4871909997828,-33.580092000337,0,
mc_317,,Charles Duminy,,18.4846919993639,-33.5798920008572,0,
mc_318,,Pella Central,,18.5206810004562,-33.5388719999446,0,
mc_319,,Tom Henshilwood,,18.4829559988578,-33.5832769995641,0,
mc_320,,Pella Central,,18.5206750007502,-33.5388390000741,0,
mc_321,,Pella South,,18.5201600001716,-33.5423890008408,0,
mc_322,,John Van Niekerk,,18.4782279992809,-33.5844479999354,0,
mc_323,,Neil Hare,,18.4744349996766,-33.5870829988851,0,
mc_324,,Silverstream,,18.4826710005043,-33.5205070002244,0,
mc_325,,Atlantis,,18.4918109998214,-33.5638499999132,0,
mc_326,,Charles Matthews,,18.4814039996412,-33.591213000365,0,
mc_327,,Lord Caledon,,18.4743780005412,-33.5109940005259,0,
mc_328,,Begonia,,18.4966680000935,-33.5802710000336,0,
mc_329,,Aloe,,18.5015230005264,-33.5805540002378,0,
mc_330,,Acacia,,18.5029749990767,-33.5796359990254,0,
mc_331,,Azalea,,18.5031499994558,-33.5759269998879,0,
mc_332,,Kerria Primary,,18.4989519996807,-33.5768959992309,0,
mc_333,,Begonia,,18.4974229992685,-33.5805549996234,0,
mc_334,,Aloe,,18.5018099996838,-33.5804649995951,0,
mc_335,,Acacia,,18.5030339994721,-33.5795270006419,0,
mc_336,,Azalea,,18.5028519990497,-33.5758159994738,0,
mc_337,,Kerria Primary,,18.4986480000893,-33.5770069999021,0,
mc_338,,Charles Matthews,,18.4814159993893,-33.5912729999626,0,
mc_339,,Neil Hare,,18.4743170009529,-33.58702500028,0,
mc_340,,Tom Henshilwood,,18.4829119994001,-33.583268000384,0,
mc_341,,Charles Duminy,,18.4842959999369,-33.5801059998026,0,
mc_342,,Starke,,18.4872219998857,-33.5799879996143,0,
mc_343,,Berzelia,,18.4929849992314,-33.5778120007318,0,
mc_344,,Disa,,18.4938640000423,-33.5735870010882,0,
mc_345,,Alberto,,18.490294999993,-33.5719829995832,0,
mc_346,,Bengal,,18.4861130013476,-33.5713930009098,0,
mc_347,,Colebrook,,18.4822360001976,-33.5709159999479,0,
mc_348,,Gothenburg,,18.4831939998358,-33.5681929997298,0,
mc_349,,Parkview,,18.4883400001936,-33.5655739996555,0,
mc_350,,Atlantis,,18.491651000577,-33.5639050003842,0,
mc_351,,Oscar Mpetha,,18.6838430000732,-34.0563190000788,0,
mc_352,,Ncumo West,,18.6734660005086,-34.0534910003225,0,
mc_353,,Kwezi,,18.6686890004724,-34.0479389996136,0,
mc_354,,Ngcingcu,,18.6670310001838,-34.0449290004642,0,
mc_355,,Makabeni,,18.6605679991614,-34.0434979997296,0,
mc_356,,Mfundisweni,,18.6537760001325,-34.0394469993438,0,
mc_357,,Pama West,,18.6528249997932,-34.0312010000016,0,
mc_358,,Sigwele,,18.6518289993356,-34.0227010007495,0,
mc_359,,Aliam,,18.6534570000987,-34.0183439996345,0,
mc_360,,Jeff Masemola,,18.6566190002576,-34.0157730001992,0,
mc_361,,Civic Centre,,18.4297220007067,-33.9207180002612,0,
mc_362,,Civic Centre,,18.4297489992939,-33.9207379998985,0,
mc_363,,Jeff Masemola,,18.6565900009199,-34.0160709995475,0,
mc_364,,Aliam,,18.6534799993375,-34.0184740001238,0,
mc_365,,Sigwele,,18.6518429996345,-34.0228179997033,0,
mc_366,,Pama West,,18.652831000207,-34.0312530000244,0,
mc_367,,Mfundisweni,,18.6537840003729,-34.0395109999235,0,
mc_368,,Makabeni,,18.6607200004233,-34.0434479992071,0,
mc_369,,Ngcingcu,,18.6670700004143,-34.0450060004305,0,
mc_370,,Kwezi,,18.6687020001202,-34.0479500006016,0,
mc_371,,Ncumo West,,18.6735710009484,-34.0535649997742,0,
mc_372,,Oscar Mpethu,,18.6840239994287,-34.0563200004336,0,
mc_373,,Kuyasa,,18.6926200002801,-34.0555789995356,0,
mc_374,,Adderley,,18.4249320005171,-33.9205990000783,0,
mc_375,,Riebeeck,,18.4208299999154,-33.9182909992134,0,
mc_376,,Alfred,,18.4182180002972,-33.9152949996746,0,
mc_377,,Gallows Hill,,18.41610500041,-33.9119829995538,0,
mc_378,,Upper Portswood,,18.4130879999117,-33.9092099997766,0,
mc_379,,Wigtown,,18.4069919997801,-33.9075720002066,0,
mc_380,,Hill,,18.4033770004586,-33.9078160003909,0,
mc_381,,Ellerslie,,18.3982969996721,-33.9081660004678,0,
mc_382,,Camberwell,,18.395823999871,-33.909212000656,0,
mc_383,,Sea Point High,,18.3940839998056,-33.9106879998296,0,
mc_384,,Firmount,,18.3919019992448,-33.9132229998792,0,
mc_385,,Sea Point,,18.3900130003611,-33.9154209996735,0,
mc_386,,Arthur's,,18.3879370007094,-33.9178660004738,0,
mc_387,,Clarens,,18.3856609995649,-33.9195399996765,0,
mc_388,,Kei Apple,,18.3831160002194,-33.9211469997388,0,
mc_389,,Tramway,,18.3812290002058,-33.9221950001056,0,
mc_390,,Queens Beach,,18.3797209992122,-33.9213680009049,0,
mc_391,,Queens Beach,,18.3797209992122,-33.9213680009049,0,
mc_392,,Tramway,,18.3817150011423,-33.9219299996261,0,
mc_393,,Kei Apple,,18.3835090004145,-33.9208989999603,0,
mc_394,,Clarens,,18.3859190005375,-33.9193779994529,0,
mc_395,,Arthur's,,18.3882970002601,-33.9174409999515,0,
mc_396,,Sea Point,,18.3902250004818,-33.9151749996981,0,
mc_397,,Firmount,,18.3925110001166,-33.9125080004854,0,
mc_398,,Sea Point High,,18.3937649999626,-33.9110529992788,0,
mc_399,,Camberwell,,18.3963869995217,-33.9088879995556,0,
mc_400,,Ellerslie,,18.3979579995477,-33.9080810003934,0,
mc_401,,Hill,,18.402539000297,-33.9077850000033,0,
mc_402,,Wigtown,,18.4064319993346,-33.9075200004827,0,
mc_403,,Upper Portswood,,18.4132060005635,-33.9091899993043,0,
mc_404,,Gallows Hill,,18.4162460009119,-33.9119759998731,0,
mc_405,,Alfred,,18.4185569989204,-33.915970000127,0,
mc_406,,Riebeeck,,18.4219149999193,-33.9190670000228,0,
mc_407,,Waterkant,,18.4217810009495,-33.9200529998925,0,
mc_408,,St Georges,,18.4224909994444,-33.9214569998594,0,
mc_409,,Adderley,,18.424797999982,-33.9204550007084,0,
mc_410,,Civic Centre,,18.4297489992939,-33.9207379998985,0,
mc_411,,Kapteinsklip,,18.6216669995664,-34.0675390000189,0,
mc_412,,Snowdon,,18.6261849996912,-34.0660719996418,0,
mc_413,,Paulsberg,,18.6312650003226,-34.0637080000126,0,
mc_414,,Langberg,,18.6376270008901,-34.0605319995261,0,
mc_415,,Spine,,18.6316689998658,-34.0540370001126,0,
mc_416,,Imperial,,18.6249460003081,-34.0482879992286,0,
mc_417,,Mitchell's Plain,,18.6196090007939,-34.0464800001131,0,
mc_418,,Pontiac,,18.621154000311,-34.0446849994245,0,
mc_419,,Kerrem,,18.6189189999485,-34.0404319996255,0,
mc_420,,Marguerite,,18.6145010002027,-34.0317309991499,0,
mc_421,,Sesame,,18.6082940002716,-34.0228440000694,0,
mc_422,,Civic Centre,,18.4297220007067,-33.9207180002612,0,
mc_423,,Imperial,,18.6250939999461,-34.048153999888,0,
mc_424,,Mitchells Plain,,18.6196090007939,-34.0464800001131,0,
mc_425,,Kapteinsklip,,18.6214540000496,-34.0678660001245,0,
mc_426,,Snowdon,,18.6264160003794,-34.0660739994502,0,
mc_427,,Paulsberg,,18.6313359994266,-34.0637349995575,0,
mc_428,,Langeberg,,18.6374329993718,-34.0612579999936,0,
mc_429,,Spine,,18.6328939999887,-34.0547809997929,0,
mc_430,,Kerrem,,18.618742000675,-34.0394739998598,0,
mc_431,,Marguerite,,18.6147130009135,-34.031648000354,0,
mc_432,,Sesame,,18.6085710003058,-34.022794999528,0,
mc_433,,Civic Centre,,18.4297489992939,-33.9207379998985,0,
mc_434,,Civic Centre,,18.4297220007067,-33.9207180002612,0,
mc_435,,Foreshore,,18.4302909997931,-33.9183560000351,0,
mc_436,,Lower Long,,18.4231200005053,-33.9188140001425,0,
mc_437,,Mid Long,,18.4208660004257,-33.9208859998313,0,
mc_438,,Longmarket,,18.419059999777,-33.9225299997471,0,
mc_439,,Dorp,,18.4175249991247,-33.923932999696,0,
mc_440,,Upper Long,,18.4146569994686,-33.9265390000035,0,
mc_441,,Michaelis,,18.413388000784,-33.9287160007832,0,
mc_442,,Government Ave,,18.4137049995319,-33.9315220003361,0,
mc_443,,Annandale,,18.4147980000129,-33.9330999993652,0,
mc_444,,Gardens,,18.4195719999797,-33.9339760002081,0,
mc_445,,Gardens,,18.4195300006187,-33.9342380001388,0,
mc_446,,Annandale,,18.4151430007748,-33.933666999878,0,
mc_447,,Government Ave,,18.4131719992176,-33.930948000548,0,
mc_448,,Michaelis,,18.4132679998796,-33.9289619997357,0,
mc_449,,Upper Loop,,18.4139830010422,-33.9261010001467,0,
mc_450,,Leeuwen,,18.4163189997971,-33.923955999552,0,
mc_451,,Church,,18.4180560012466,-33.9223709990502,0,
mc_452,,Mid Loop,,18.420787999751,-33.9198860005193,0,
mc_453,,Lower Loop,,18.4223789999385,-33.9184259998404,0,
mc_454,,Foreshore,,18.4310769995807,-33.9178450002483,0,
mc_455,,Civic Centre,,18.4297489992939,-33.9207379998985,0,
mc_456,,Civic Centre,,18.4297220007067,-33.9207180002612,0,
mc_457,,Adderley,,18.4249320005171,-33.9205990000783,0,
mc_458,,Darling,,18.4222719995466,-33.9238660001151,0,
mc_459,,Lower Buitenkant,,18.4247940000938,-33.9264929998302,0,
mc_460,,Roeland,,18.421177000587,-33.9299719996647,0,
mc_461,,Roodehek,,18.4198380005092,-33.9323019996221,0,
mc_462,,Lower Plein,,18.4240099992727,-33.9234190004501,0,
mc_463,,Breakwater,,18.4206920011734,-33.9021230003181,0,
mc_464,,Gardens,,18.4195719999797,-33.9339760002081,0,
mc_465,,Gardens,,18.4195300006187,-33.9342380001388,0,
mc_466,,Annandale,,18.4151430007748,-33.933666999878,0,
mc_467,,De Waal Park,,18.4141129990886,-33.9378630001099,0,
mc_468,,Upper Orange,,18.4141110007472,-33.9406600003143,0,
mc_469,,Montrose,,18.4114410003133,-33.9412810001579,0,
mc_470,,Marmion,,18.4116710003106,-33.9433089996558,0,
mc_471,,Chesterfield,,18.4096759995781,-33.9432149997171,0,
mc_472,,Invermark,,18.4080060004276,-33.9430340003436,0,
mc_473,,Molteno,,18.4090989998073,-33.9403960008491,0,
mc_474,,Rayden,,18.409822000041,-33.9370770005172,0,
mc_475,,Lower Reservoir,,18.4122139990915,-33.935180999678,0,
mc_476,,Annandale,,18.4147980000129,-33.9330999993652,0,
mc_477,,Gardens,,18.4195300006187,-33.9342380001388,0,
mc_478,,Roodehek,,18.4201239992375,-33.9316510004856,0,
mc_479,,Roeland,,18.4212109997143,-33.9297659999033,0,
mc_480,,Lower Buitenkant,,18.424658999454,-33.926619999858,0,
mc_481,,Darling,,18.42277699993,-33.9242480006986,0,
mc_482,,Adderley,,18.424797999982,-33.9204550007084,0,
mc_483,,Graaff's Pool,,18.3881909999363,-33.9132059996307,0,
mc_484,,Civic Centre,,18.4297489992939,-33.9207379998985,0,
mc_485,,Victoria,,18.522403000118,-33.8879940000339,0,
mc_486,,Sailors Green,,18.5254230000951,-33.8854120002007,0,
mc_487,,Soldier,,18.5270760010403,-33.8830489999508,0,
mc_488,,Emerald,,18.5265860008629,-33.8798699999581,0,
mc_489,,Century Gate,,18.5227880009068,-33.8819890005124,0,
mc_490,,Edison,,18.5170940003448,-33.8819259998919,0,
mc_491,,Ocean Spirit,,18.5141109997392,-33.8814880002189,0,
mc_492,,Democracy South,,18.5070809989109,-33.8804280001345,0,
mc_493,,Quest,,18.4977550010087,-33.8803780002567,0,
mc_494,,Loxton East,,18.4954080000439,-33.8830440002606,0,
mc_495,,Loxton West,,18.4921669996139,-33.8823760011081,0,
mc_496,,Loxton West,,18.4920269997744,-33.8823410005246,0,
mc_497,,Mansfield,,18.4958810003145,-33.882655000889,0,
mc_498,,Quest,,18.4976779994578,-33.8802700003406,0,
mc_499,,Democracy South,,18.507621999772,-33.8803709998092,0,
mc_500,,Namer,,18.5148729991036,-33.8817659999259,0,
mc_501,,Edison,,18.5169890002194,-33.8819309999599,0,
mc_502,,Century Gate,,18.5224159998642,-33.8816059992257,0,
mc_503,,Emerald,,18.5266509996307,-33.8799269992602,0,
mc_504,,Soldier,,18.527104999824,-33.883103000519,0,
mc_505,,Sailors Green,,18.5253800001093,-33.885433999473,0,
mc_506,,Victoria,,18.5224210006113,-33.8879890004736,0,
mc_507,,Adderley,,18.424797999982,-33.9204550007084,0,
mc_508,,Leeuwen,,18.4163189997971,-33.923955999552,0,
mc_509,,Upper Loop,,18.4139830010422,-33.9261010001467,0,
mc_510,,Upper Long,,18.4146569994686,-33.9265390000035,0,
mc_511,,Dorp,,18.4175249991247,-33.923932999696,0,
mc_512,,Adderley,,18.4249320005171,-33.9205990000783,0,
mc_513,,Breakwater,,18.4190630008999,-33.9032700001534,0,
mc_514,,Portswood South,,18.4147129999002,-33.9075060005706,0,
mc_515,,Portswood North,,18.4177159996633,-33.9055060005172,0,
mc_516,,Groot Kerk,,18.4211569999267,-33.9240659996739,0,
mc_517,,Lower Kloof,,18.4120930000834,-33.9286190002711,0,
mc_518,,Eaton,,18.4091459990982,-33.9316120003093,0,
mc_519,,Welgemeend,,18.4070850004056,-33.9345779995149,0,
mc_520,,Upper Kloof,,18.4050620006395,-33.9363100001186,0,
mc_521,,Kew,,18.4024590000116,-33.9369839993389,0,
mc_522,,Kew,,18.4024590000116,-33.9369839993389,0,
mc_523,,Upper Kloof,,18.4050990003971,-33.9362280000492,0,
mc_524,,Welgemeend,,18.4071380012187,-33.9345130001906,0,
mc_525,,Eaton,,18.4091449997182,-33.9316129998248,0,
mc_526,,Lower Kloof,,18.4122000001161,-33.9285160003709,0,
mc_527,,Groot Kerk,,18.4212200002101,-33.9238359994181,0,
mc_528,,Waterfront,,18.4210469997644,-33.9017760006923,0,
mc_529,,Breakwater,,18.4194839998509,-33.9028630001889,0,
mc_530,,Portswood North,,18.4178949999749,-33.9053790006049,0,
mc_531,,Portswood South,,18.4148909995936,-33.9073869991115,0,
mc_532,,Kew,,18.4024590000116,-33.9369839993389,0,
mc_533,,Upper Kloof,,18.4050990003971,-33.9362280000492,0,
mc_534,,Welgemeend,,18.4071380012187,-33.9345130001906,0,
mc_535,,Eaton,,18.4091449997182,-33.9316129998248,0,
mc_536,,Lower Kloof,,18.4122000001161,-33.9285160003709,0,
mc_537,,Upper Loop,,18.4139830010422,-33.9261010001467,0,
mc_538,,Leeuwen,,18.4163189997971,-33.923955999552,0,
mc_539,,Church,,18.4180560012466,-33.9223709990502,0,
mc_540,,Mid Loop,,18.420787999751,-33.9198860005193,0,
mc_541,,Riebeeck,,18.4208299999154,-33.9182909992134,0,
mc_542,,Alfred,,18.4182180002972,-33.9152949996746,0,
mc_543,,Gallows Hill,,18.41610500041,-33.9119829995538,0,
mc_544,,Upper Portswood,,18.4130879999117,-33.9092099997766,0,
mc_545,,Fort Wynard,,18.4134129993204,-33.9053079999076,0,
mc_546,,Beach,,18.4165330004056,-33.90334299998,0,
mc_547,,Breakwater,,18.4194839998509,-33.9028630001889,0,
mc_548,,Waterfront,,18.4210409997076,-33.9018850005661,0,
mc_549,,Waterfront,,18.4210469997644,-33.9017760006923,0,
mc_550,,Breakwater,,18.4190630008999,-33.9032700001534,0,
mc_551,,Beach,,18.4166060000215,-33.9034249995284,0,
mc_552,,Fort Wynard,,18.4136589996692,-33.9052679997445,0,
mc_553,,Wigtown,,18.4069919997801,-33.9075720002066,0,
mc_554,,Hill,,18.4033770004586,-33.9078160003909,0,
mc_555,,Ellerslie,,18.3982969996721,-33.9081660004678,0,
mc_556,,Camberwell,,18.395823999871,-33.909212000656,0,
mc_557,,Sea Point High,,18.3940839998056,-33.9106879998296,0,
mc_558,,Firmount,,18.3919019992448,-33.9132229998792,0,
mc_559,,Sea Point,,18.3900130003611,-33.9154209996735,0,
mc_560,,Arthur's,,18.3879370007094,-33.9178660004738,0,
mc_561,,Clarens,,18.3856609995649,-33.9195399996765,0,
mc_562,,Kei Apple,,18.3831160002194,-33.9211469997388,0,
mc_563,,Tramway,,18.3812290002058,-33.9221950001056,0,
mc_564,,Waterfront,,18.4210469997644,-33.9017760006923,0,
mc_565,,Breakwater,,18.4194839998509,-33.9028630001889,0,
mc_566,,Beach,,18.4165330004056,-33.90334299998,0,
mc_567,,Fort Wynard,,18.4134129993204,-33.9053079999076,0,
mc_568,,Wigtown,,18.4064319993346,-33.9075200004827,0,
mc_569,,Hill,,18.402539000297,-33.9077850000033,0,
mc_570,,Ellerslie,,18.3979579995477,-33.9080810003934,0,
mc_571,,Camberwell,,18.3963869995217,-33.9088879995556,0,
mc_572,,Sea Point High,,18.3937649999626,-33.9110529992788,0,
mc_573,,Firmount,,18.3925110001166,-33.9125080004854,0,
mc_574,,Sea Point,,18.3902250004818,-33.9151749996981,0,
mc_575,,Arthur's,,18.3882970002601,-33.9174409999515,0,
mc_576,,Clarens,,18.3859190005375,-33.9193779994529,0,
mc_577,,Kei Apple,,18.3835090004145,-33.9208989999603,0,
mc_578,,Tramway,,18.3817150011423,-33.9219299996261,0,
mc_579,,Beach,,18.4166060000215,-33.9034249995284,0,
mc_580,,Fort Wynard,,18.4136589996692,-33.9052679997445,0,
mc_581,,Upper Portswood,,18.4132060005635,-33.9091899993043,0,
mc_582,,Gallows Hill,,18.4162460009119,-33.9119759998731,0,
mc_583,,Alfred,,18.4185569989204,-33.915970000127,0,
mc_584,,Riebeeck,,18.4219149999193,-33.9190670000228,0,
mc_585,,Mid Long,,18.4208660004257,-33.9208859998313,0,
mc_586,,Longmarket,,18.419059999777,-33.9225299997471,0,
mc_587,,Dorp,,18.4175249991247,-33.923932999696,0,
mc_588,,Upper Long,,18.4146569994686,-33.9265390000035,0,
mc_589,,Lower Kloof,,18.4120930000834,-33.9286190002711,0,
mc_590,,Eaton,,18.4091459990982,-33.9316120003093,0,
mc_591,,Welgemeend,,18.4070850004056,-33.9345779995149,0,
mc_592,,Upper Kloof,,18.4050620006395,-33.9363100001186,0,
mc_593,,Kew,,18.4024590000116,-33.9369839993389,0,
mc_594,,Lower Plein,,18.4240099992727,-33.9234190004501,0,
mc_595,,Riebeeck,,18.4208299999154,-33.9182909992134,0,
mc_596,,Alfred,,18.4182180002972,-33.9152949996746,0,
mc_597,,Gallows Hill,,18.41610500041,-33.9119829995538,0,
mc_598,,Upper Portswood,,18.4130879999117,-33.9092099997766,0,
mc_599,,Wigtown,,18.4069919997801,-33.9075720002066,0,
mc_600,,Hill,,18.4033770004586,-33.9078160003909,0,
mc_601,,Ellerslie,,18.3982969996721,-33.9081660004678,0,
mc_602,,Camberwell,,18.395823999871,-33.909212000656,0,
mc_603,,Sea Point High,,18.3940839998056,-33.9106879998296,0,
mc_604,,Firmount,,18.3919019992448,-33.9132229998792,0,
mc_605,,Sea Point,,18.3900130003611,-33.9154209996735,0,
mc_606,,Arthur's,,18.3879370007094,-33.9178660004738,0,
mc_607,,Clarens,,18.3856609995649,-33.9195399996765,0,
mc_608,,Kei Apple,,18.3831160002194,-33.9211469997388,0,
mc_609,,Tramway,,18.3812290002058,-33.9221950001056,0,
mc_610,,Mid Loop,,18.420787999751,-33.9198860005193,0,
mc_611,,Strand,,18.4209009995896,-33.9204329997289,0,
mc_612,,Kiwu,,18.5109369998816,-33.8737629993957,0,
mc_613,,Darling,,18.4222719995466,-33.9238660001151,0,
mc_614,,St Georges,,18.4224909994444,-33.9214569998594,0,
mc_615,,Waterkant,,18.4217810009495,-33.9200529998925,0,
mc_616,,Riebeeck,,18.4219149999193,-33.9190670000228,0,
mc_617,,Alfred,,18.4185569989204,-33.915970000127,0,
mc_618,,Gallows Hill,,18.4162460009119,-33.9119759998731,0,
mc_619,,Upper Portswood,,18.4132060005635,-33.9091899993043,0,
mc_620,,Wigtown,,18.4064319993346,-33.9075200004827,0,
mc_621,,Hill,,18.402539000297,-33.9077850000033,0,
mc_622,,Ellerslie,,18.3979579995477,-33.9080810003934,0,
mc_623,,Camberwell,,18.3963869995217,-33.9088879995556,0,
mc_624,,Sea Point High,,18.3937649999626,-33.9110529992788,0,
mc_625,,Firmount,,18.3925110001166,-33.9125080004854,0,
mc_626,,Sea Point,,18.3902250004818,-33.9151749996981,0,
mc_627,,Arthur's,,18.3882970002601,-33.9174409999515,0,
mc_628,,Clarens,,18.3859190005375,-33.9193779994529,0,
mc_629,,Kei Apple,,18.3835090004145,-33.9208989999603,0,
mc_630,,Omuramba,,18.5124509997956,-33.8682029998126,0,
mc_631,,Tramway,,18.3817150011423,-33.9219299996261,0,
mc_632,,Democracy North,,18.5093250003005,-33.8729099995736,0,
mc_633,,Venus,,18.5070159997879,-33.8722039999939,0,
mc_634,,Gousblom,,18.5046409995525,-33.8713749997244,0,
mc_635,,Crassula,,18.5024719989631,-33.8742299994437,0,
mc_636,,Zastron,,18.501167999195,-33.8759340000699,0,
mc_637,,Quest,,18.4977550010087,-33.8803780002567,0,
mc_638,,Mansfield,,18.4959880001185,-33.8827110001251,0,
mc_639,,Tijgerhof,,18.4946810005569,-33.88752500037,0,
mc_640,,Boundary,,18.4933460002229,-33.891410999728,0,
mc_641,,Madeira,,18.4912489994384,-33.895992000864,0,
mc_642,,Dreyer,,18.4898949997522,-33.8987840003899,0,
mc_643,,Narwhal,,18.4877719997815,-33.9031869998836,0,
mc_644,,Sheridan,,18.4857790008111,-33.9073719998563,0,
mc_645,,Fenwick,,18.4837809992333,-33.9116049994398,0,
mc_646,,Conway,,18.4825660007363,-33.9141949996983,0,
mc_647,,Coronation,,18.4808110004869,-33.9225960000597,0,
mc_648,,Maitland,,18.4865279995822,-33.9243939998764,0,
mc_649,,Green,,18.4785880002187,-33.9242480000076,0,
mc_650,,Loco,,18.4709370001299,-33.9255719998503,0,
mc_651,,Salt River Hall,,18.4617249989572,-33.9276729997453,0,
mc_652,,Biscuit Mill,,18.4568080002421,-33.9276590007852,0,
mc_653,,Dublin,,18.4532029991961,-33.9272220000616,0,
mc_654,,Lower Church,,18.4499849999157,-33.9268530005091,0,
mc_655,,Davison,,18.446236999334,-33.9264549999472,0,
mc_656,,Barron,,18.4434629997642,-33.9262940002772,0,
mc_657,,Russel,,18.4353860002275,-33.926812000367,0,
mc_658,,Castle,,18.4258760000628,-33.9240900004176,0,
mc_659,,Adderley,,18.424797999982,-33.9204550007084,0,
mc_660,,Civic Centre,,18.4297489992939,-33.9207379998985,0,
mc_661,,Civic Centre,,18.4297220007067,-33.9207180002612,0,
mc_662,,Adderley,,18.4249320005171,-33.9205990000783,0,
mc_663,,Castle,,18.4259879997858,-33.9239610004746,0,
mc_664,,Russel,,18.4354249993188,-33.9266550004767,0,
mc_665,,Barron,,18.4435129995057,-33.9262940003474,0,
mc_666,,Davison,,18.4462399999018,-33.9264559998376,0,
mc_667,,Lower Church,,18.4500049998583,-33.9268560006064,0,
mc_668,,Dublin,,18.4532430006977,-33.9272259995783,0,
mc_669,,Biscuit Mill,,18.4568039990915,-33.9276580003059,0,
mc_670,,Salt River Hall,,18.4618030005269,-33.9275249998816,0,
mc_671,,Loco,,18.4710579997407,-33.9254599996526,0,
mc_672,,Green,,18.4783350004047,-33.9242750007531,0,
mc_673,,Maitland,,18.4865279995822,-33.9243939998764,0,
mc_674,,Coronation,,18.4808000000763,-33.9225429995643,0,
mc_675,,Conway,,18.4824630003825,-33.9141430000034,0,
mc_676,,Fenwick,,18.4837090003577,-33.9114899996279,0,
mc_677,,Sheridan,,18.485691999733,-33.9072849997154,0,
mc_678,,Narwhal,,18.4876989998402,-33.9030079997326,0,
mc_679,,Dreyer,,18.4897329998706,-33.8987619996184,0,
mc_680,,Madeira,,18.4911909989688,-33.8957969995747,0,
mc_681,,Tijgerhof,,18.4946879995742,-33.8875029999666,0,
mc_682,,Mansfield,,18.4958810003145,-33.882655000889,0,
mc_683,,Quest,,18.4976779994578,-33.8802700003406,0,
mc_684,,Zastron,,18.5011439998614,-33.875771999033,0,
mc_685,,Crassula,,18.5024879996337,-33.8740119991351,0,
mc_686,,Gousblom,,18.5047709995017,-33.8713149995026,0,
mc_687,,Venus,,18.5071420006115,-33.8722400009371,0,
mc_688,,Democracy North,,18.509443000628,-33.8729739992417,0,
mc_689,,Kiwu,,18.5110659991425,-33.8738250001379,0,
mc_690,,Omuramba,,18.5124849994102,-33.8682210005325,0,
mc_691,,Waterville,,18.4876089996928,-33.8040279996613,0,
mc_692,,Nantucket,,18.4887159992659,-33.8061069994371,0,
mc_693,,Humewood,,18.4941900010993,-33.8050589991,0,
mc_694,,Devonshire,,18.4997950003935,-33.8067019998221,0,
mc_695,,Wood North,,18.5038460005752,-33.8055059998565,0,
mc_696,,Ravensmead,,18.5047329995386,-33.809922998955,0,
mc_697,,Wood Central,,18.507375999132,-33.8144810010508,0,
mc_698,,Muscadel,,18.5095490004698,-33.8205329993375,0,
mc_699,,Merlot,,18.5081350006934,-33.8245369998111,0,
mc_700,,Wood,,18.5067759992843,-33.8295060001695,0,
mc_701,,Wood,,18.5067490002697,-33.8294989994717,0,
mc_702,,Merlot,,18.5082149996214,-33.8243219991738,0,
mc_703,,Bitten,,18.5132600008225,-33.8243809996511,0,
mc_704,,Gie South,,18.5168560002703,-33.825312000362,0,
mc_705,,Pinto,,18.5185069996264,-33.8216219998283,0,
mc_706,,Earlswood,,18.5193270007132,-33.8172810000997,0,
mc_707,,Gie Central,,18.5188250001808,-33.8136619995347,0,
mc_708,,Hamptons,,18.5139129999451,-33.8061690000278,0,
mc_709,,Gie North,,18.5116999993815,-33.8042079996296,0,
mc_710,,Wandsworth,,18.5076530007207,-33.8007560003422,0,
mc_711,,Century City,,18.5063430004298,-33.8915539997488,0,
mc_712,,Dumani,,18.5374870002513,-33.8160830001625,0,
mc_713,,Hampstead,,18.5028190001294,-33.8152029998298,0,
mc_714,,Woodlands,,18.4974070001726,-33.8015599999614,0,
mc_715,,Braselton,,18.4930719995473,-33.8025910011515,0,
mc_716,,Waterville,,18.4872840011552,-33.8036589999066,0,
mc_717,,Wood,,18.5067490002697,-33.8294989994717,0,
mc_718,,Popham,,18.4835329996774,-33.8234130004706,0,
mc_719,,Marine Circle,,18.4778549993988,-33.8219060004263,0,
mc_720,,Seal,,18.4721130008635,-33.8149850003849,0,
mc_721,,Shell,,18.4699660003311,-33.8118299996998,0,
mc_722,,Perlemoen,,18.4667140001647,-33.8074159994189,0,
mc_723,,Bokkombaai,,18.4629589994527,-33.8035689993888,0,
mc_724,,Kleinbaai,,18.4603000002166,-33.7987500005278,0,
mc_725,,De Mist,,18.4595670004057,-33.7960699995608,0,
mc_726,,Marine Circle,,18.4787310004617,-33.8220449997787,0,
mc_727,,Seal,,18.4722009994219,-33.8151330002702,0,
mc_728,,Shell,,18.4701790000292,-33.8121260007315,0,
mc_729,,Perlemoen,,18.4661189999697,-33.8066150002361,0,
mc_730,,Bokkombaai,,18.4627949998596,-33.803466999401,0,
mc_731,,Kleinbaai,,18.4605709998267,-33.799496999902,0,
mc_732,,De Mist,,18.4599069996419,-33.796812999872,0,
mc_733,,Table View,,18.4888339991628,-33.8247679996143,0,
mc_734,,Big Bay,,18.4587639994136,-33.7927860004063,0,
mc_735,,Upper Long,,18.4146569994686,-33.9265390000035,0,
mc_736,,Dorp,,18.4175249991247,-33.923932999696,0,
mc_737,,Adderley,,18.4249320005171,-33.9205990000783,0,
mc_738,,Upper Loop,,18.4139830010422,-33.9261010001467,0,
mc_739,,Leeuwen,,18.4163189997971,-33.923955999552,0,
mc_740,,Adderley,,18.424797999982,-33.9204550007084,0,
mc_741,,Groot Kerk,,18.4211569999267,-33.9240659996739,0,
mc_742,,Lower Kloof,,18.4120930000834,-33.9286190002711,0,
mc_743,,Eaton,,18.4091459990982,-33.9316120003093,0,
mc_744,,Welgemeend,,18.4070850004056,-33.9345779995149,0,
mc_745,,Upper Kloof,,18.4050620006395,-33.9363100001186,0,
mc_746,,Kew,,18.4024590000116,-33.9369839993389,0,
mc_747,,Kew,,18.4024590000116,-33.9369839993389,0,
mc_748,,Upper Kloof,,18.4050990003971,-33.9362280000492,0,
mc_749,,Welgemeend,,18.4071380012187,-33.9345130001906,0,
mc_750,,Eaton,,18.4091449997182,-33.9316129998248,0,
mc_751,,Groot Kerk,,18.4212200002101,-33.9238359994181,0,
mc_752,,Lower Kloof,,18.4122000001161,-33.9285160003709,0,
mc_753,,St Johns Wood,,18.4980239991462,-33.8160230000568,0,
mc_754,,Echium,,18.4937109996397,-33.8207389999268,0,
mc_755,,Briza,,18.4910550004413,-33.8227429999711,0,
mc_756,,Table View,,18.4888339991628,-33.8247679996143,0,
mc_757,,Popham,,18.4843600006461,-33.8235169998394,0,
mc_758,,Marine Circle,,18.4787310004617,-33.8220449997787,0,
mc_759,,Parklands Main,,18.5075619993502,-33.8131139995508,0,
mc_760,,Oakdale,,18.5093959997861,-33.8117770000457,0,
mc_761,,Dorchester,,18.5115269995731,-33.8099389994796,0,
mc_762,,Chippenham,,18.5141919995952,-33.8071270003439,0,
mc_763,,Dartford,,18.5203880001043,-33.803425000412,0,
mc_764,,Rivergate,,18.5326270002013,-33.7979440000539,0,
mc_765,,Morningfield,,18.5215360007105,-33.8002680007224,0,
mc_766,,Stables Way,,18.5402770002235,-33.8121989997422,0,
mc_767,,Table View,,18.4888339991628,-33.8247679996143,0,
mc_768,,Popham,,18.4835329996774,-33.8234130004706,0,
mc_769,,Marine Circle,,18.4778549993988,-33.8219060004263,0,
mc_770,,Dumani,,18.5374870002513,-33.8160830001625,0,
mc_771,,Ngena,,18.540583000419,-33.8179479995313,0,
mc_772,,Siyabonga,,18.5420879997945,-33.8152139999889,0,
mc_773,,Stables Way,,18.5404980002273,-33.8123769999363,0,
mc_774,,Morningfield,,18.5215079988355,-33.8006210001054,0,
mc_775,,Rivergate,,18.5319140003403,-33.7981090002018,0,
mc_776,,Dartford,,18.5203650012236,-33.8034449995759,0,
mc_777,,Chippenham,,18.5141989996762,-33.8071190000948,0,
mc_778,,Dorchester,,18.5115109991931,-33.809955000739,0,
mc_779,,Oakdale,,18.5093880005311,-33.8117829999104,0,
mc_780,,Parklands Main,,18.5075279994828,-33.8131279999169,0,
mc_781,,Hampstead,,18.5028229996906,-33.8152009999849,0,
mc_782,,St Johns Wood,,18.4971519996045,-33.8165880004275,0,
mc_783,,Echium,,18.4942959988026,-33.8204370009558,0,
mc_784,,Century City,,18.5063430004298,-33.8915539997488,0,
mc_785,,Grand Canal,,18.5059120006001,-33.8941199999524,0,
mc_786,,Canal Walk South,,18.510526000021,-33.8964820004323,0,
mc_787,,Canal Walk North,,18.5152400000411,-33.8926839993627,0,
mc_788,,Waterford,,18.5194269997343,-33.8890909999406,0,
mc_789,,Waterview,,18.5202899992671,-33.8868539990876,0,
mc_790,,Estuaries,,18.5206060002768,-33.8844130007426,0,
mc_791,,Summer Greens,,18.5245319999803,-33.8778490004376,0,
mc_792,,Vryburger South,,18.5339249999883,-33.8724130003976,0,
mc_793,,Bothma,,18.5335960004893,-33.8693789998497,0,
mc_794,,Oranje,,18.5345860005086,-33.8651010002161,0,
mc_795,,Goede Hoop,,18.5348210007769,-33.859517999914,0,
mc_796,,Meerhof,,18.5364639989673,-33.8543900003826,0,
mc_797,,Steenhoven,,18.5390160011388,-33.852840999828,0,
mc_798,,Carmine,,18.5414899993561,-33.8460930001214,0,
mc_799,,Cellars,,18.5492320006305,-33.8419989999257,0,
mc_800,,Crimson,,18.5494369995293,-33.8369310005318,0,
mc_801,,Indigo,,18.5511640001715,-33.8325810001075,0,
mc_802,,Abalone,,18.5467180002122,-33.8318480003255,0,
mc_803,,Richwood,,18.5419590000579,-33.8320590006807,0,
mc_804,,Midwood,,18.543756000086,-33.8349120000808,0,
mc_805,,Jonkershoek,,18.5439890003387,-33.8374379995887,0,
mc_806,,Burgundy,,18.5446560005216,-33.8422780007636,0,
mc_807,,Century Gate,,18.5227880009068,-33.8819890005124,0,
mc_808,,Jonkershoek,,18.5440130010111,-33.8374460008772,0,
mc_809,,Midwood,,18.5438360005331,-33.8349989994835,0,
mc_810,,Richwood,,18.5420500001705,-33.8320859991676,0,
mc_811,,Abalone,,18.5466299995485,-33.831821999933,0,
mc_812,,Indigo,,18.5511600004924,-33.8325130003076,0,
mc_813,,Crimson,,18.5493820001876,-33.8367489998009,0,
mc_814,,Cellars,,18.5491130001015,-33.841853000097,0,
mc_815,,Burgundy,,18.5449239995058,-33.8422370004457,0,
mc_816,,Carmine,,18.541577000514,-33.8458659999792,0,
mc_817,,Steenhoven,,18.5388979996886,-33.8527759997707,0,
mc_818,,Meerhof,,18.5367119995239,-33.8544550001285,0,
mc_819,,Goede Hoop,,18.5347399989298,-33.8593560007212,0,
mc_820,,Oranje,,18.5345179991675,-33.8650440000438,0,
mc_821,,Bothma,,18.5334590003507,-33.8692589998717,0,
mc_822,,Jacob,,18.5342900005449,-33.8709959998236,0,
mc_823,,Estuaries,,18.5204509999765,-33.8842769994386,0,
mc_824,,Waterview,,18.5200729996714,-33.8863949994904,0,
mc_825,,Waterford,,18.5188339999064,-33.8895080000934,0,
mc_826,,Canal Walk North,,18.5154789989069,-33.8922760000012,0,
mc_827,,Canal Walk South,,18.5107890008289,-33.8962819994836,0,
mc_828,,Grand Canal,,18.5061129999995,-33.8940810000262,0,
mc_829,,Century Gate,,18.5224159998642,-33.8816059992257,0,
mc_830,,Summer Greens,,18.5259259998914,-33.8766519995663,0,
mc_831,,Edgemead,,18.5474190000147,-33.8709109995168,0,
mc_832,,Greenhill,,18.5414610001537,-33.8694250006379,0,
mc_833,,Vryburger South,,18.5357080009311,-33.8716500000949,0,
mc_834,,Summer Greens,,18.5244399996277,-33.8777710002631,0,
mc_835,,Cook,,18.5396539991633,-33.8532340004396,0,
mc_836,,Batavia,,18.5445350002503,-33.8551269997453,0,
mc_837,,Drommedaris,,18.5505910011207,-33.8582809997469,0,
mc_838,,Holland,,18.5439759998559,-33.8619730010464,0,
mc_839,,Rosendal,,18.5399319997159,-33.8643630001172,0,
mc_840,,Amstel,,18.5427730005318,-33.866833000898,0,
mc_841,,Athol,,18.3860879994731,-33.9494570007615,0,
mc_842,,Letchworth West,,18.5446319997059,-33.8685310006853,0,
mc_843,,Letchworth West,,18.5446319997059,-33.8685310006853,0,
mc_844,,Ocean Spirit,,18.5155020002409,-33.8815730000998,0,
mc_845,,Democracy South,,18.507621999772,-33.8803709998092,0,
mc_846,,Kildare,,18.4959859992851,-33.8824919997021,0,
mc_847,,Quest,,18.4976779994578,-33.8802700003406,0,
mc_848,,Loxton West,,18.492087000174,-33.8823579992196,0,
mc_849,,Edgemead,,18.5474190000147,-33.8709109995168,0,
mc_850,,Batavia,,18.5456809991761,-33.8555119999802,0,
mc_851,,Drommedaris,,18.5507119999948,-33.8583130004584,0,
mc_852,,Holland,,18.5437910004494,-33.862011999383,0,
mc_853,,Rosendal,,18.5399649999269,-33.8644279996583,0,
mc_854,,Woodford,,18.3850839996482,-33.9505079995378,0,
mc_855,,Amstel,,18.5428339999161,-33.8668900003357,0,
mc_856,,Greehhill,,18.5402859992821,-33.8700840004473,0,
mc_857,,Kildare,,18.4957840006197,-33.883085000101,0,
mc_858,,Loxton West,,18.4921669996139,-33.8823760011081,0,
mc_859,,Quest,,18.4977550010087,-33.8803780002567,0,
mc_860,,Letchworth West,,18.5446319997059,-33.8685310006853,0,
mc_861,,Letchworth West,,18.5446319997059,-33.8685310006853,0,
mc_862,,Democracy South,,18.5070809989109,-33.8804280001345,0,
mc_863,,Ocean Spirit,,18.5141109997392,-33.8814880002189,0,
mc_864,,Imperial,,18.6249460003081,-34.0482879992286,0,
mc_865,,Spine,,18.6320659999631,-34.0543759993212,0,
mc_866,,Langeberg,,18.6378340006393,-34.0607829999868,0,
mc_867,,Hugenot Primary,,18.641936999726,-34.0636330001107,0,
mc_868,,Maureen,,18.6454389986439,-34.06225299945,0,
mc_869,,Martine,,18.6480700004014,-34.0642420001715,0,
mc_870,,Laura,,18.6512280000158,-34.0641100002374,0,
mc_871,,Mitchells Plain,,18.6207539994267,-34.0477559996841,0,
mc_872,,Mitchells Plain,,18.6207519999826,-34.0477510004032,0,
mc_873,,10th Avenue,,18.6174680000079,-34.0419919995514,0,
mc_874,,Imperial,,18.6250939999461,-34.048153999888,0,
mc_875,,Spine,,18.6328939999887,-34.0547809997929,0,
mc_876,,Kilimanjaro,,18.6384119994692,-34.0607020003297,0,
mc_877,,Picketberg,,18.6400599993993,-34.0597319998396,0,
mc_878,,Alma,,18.6442839998685,-34.0593869996454,0,
mc_879,,Nina,,18.6471360006514,-34.0609519992381,0,
mc_880,,Stella,,18.650888999468,-34.0624710004858,0,
mc_881,,Laura,,18.6512280000158,-34.0641100002374,0,
mc_882,,10th Avenue,,18.617469000727,-34.0419920000213,0,
mc_883,,Laura,,18.6512280000158,-34.0641100002374,0,
mc_884,,Martine,,18.6480700004014,-34.0642420001715,0,
mc_885,,Maureen,,18.6454389986439,-34.06225299945,0,
mc_886,,Hugenot Primary,,18.641936999726,-34.0636330001107,0,
mc_887,,Andes,,18.635460999853,-34.0619609999693,0,
mc_888,,Ural,,18.6315089996851,-34.0630310000685,0,
mc_889,,Olifantoos,,18.6300199988962,-34.0604110001266,0,
mc_890,,Corridor,,18.6282149996901,-34.0582079998065,0,
mc_891,,Boabab,,18.6267780004729,-34.0555100000418,0,
mc_892,,6th Avenue,,18.6253840001655,-34.0526440004268,0,
mc_893,,Mitchells Plain,,18.6207539994267,-34.0477559996841,0,
mc_894,,10th Avenue,,18.617469000727,-34.0419920000213,0,
mc_895,,Mitchells Plain,,18.6207519999826,-34.0477510004032,0,
mc_896,,10 Avenue,,18.6174680000079,-34.0419919995514,0,
mc_897,,6th Avenue,,18.6254689998391,-34.052592000263,0,
mc_898,,Boabab,,18.6268780004661,-34.0554769994974,0,
mc_899,,Corridor,,18.6282210003899,-34.0582100008891,0,
mc_900,,Olifantoos,,18.6300229997706,-34.0604149997864,0,
mc_901,,Ural,,18.6315069992364,-34.063028999631,0,
mc_902,,Andes,,18.6354419998686,-34.0619639990025,0,
mc_903,,Kilimanjaro,,18.6384119994692,-34.0607020003297,0,
mc_904,,Picketberg,,18.6400599993993,-34.0597319998396,0,
mc_905,,Alma,,18.6442839998685,-34.0593869996454,0,
mc_906,,Nina,,18.6471360006514,-34.0609519992381,0,
mc_907,,Stella,,18.650888999468,-34.0624710004858,0,
mc_908,,Laura,,18.6512280000158,-34.0641100002374,0,
mc_909,,Clifton,,18.3781339999022,-33.9335040005793,0,
mc_910,,Clifton 2nd,,18.3782850007298,-33.9370509995147,0,
mc_911,,Clifton 3rd,,18.3771490002746,-33.9401289997269,0,
mc_912,,Clifton 4th,,18.3755000001818,-33.9417730001698,0,
mc_913,,Maidens Cove,,18.3762849995792,-33.9442739997395,0,
mc_914,,Glen Beach,,18.3786329991531,-33.9470509995362,0,
mc_915,,Camps Bay,,18.3788370002289,-33.9500120003367,0,
mc_916,,Whale Rock,,18.3770750007771,-33.9532790005971,0,
mc_917,,Barley Bay,,18.3772460007013,-33.958892000125,0,
mc_918,,Bakoven,,18.3736729991104,-33.962976999847,0,
mc_919,,Koeel Bay,,18.3713890006435,-33.9705009997223,0,
mc_920,,Oudekraal,,18.3509879998344,-33.9883709995068,0,
mc_921,,Llandudno,,18.3475250010866,-34.0066500008933,0,
mc_922,,Mount Rhodes,,18.3511980000198,-34.019586999714,0,
mc_923,,Ruyteplaats,,18.3499690003786,-34.0133529997216,0,
mc_924,,Helgarda,,18.3496890014222,-34.0277110002855,0,
mc_925,,Daphne,,18.3480539995445,-34.0326570008849,0,
mc_926,,Lancaster,,18.3492220003861,-34.0364200003515,0,
mc_927,,Oxford Earl,,18.3501250005025,-34.0399699997441,0,
mc_928,,Lower Victoria,,18.3505209993721,-34.0429359997867,0,
mc_929,,Northshore,,18.3480060001665,-34.0470150006963,0,
mc_930,,Fishmarket,,18.3454740005308,-34.0493229997571,0,
mc_931,,Atlantic Skipper,,18.3465420006577,-34.054782000266,0,
mc_932,,Oceana,,18.345269999873,-34.0563380003299,0,
mc_933,,Hangberg,,18.3420669993576,-34.0542399990613,0,
mc_934,,Queens Beach,,18.3797209992122,-33.9213680009049,0,
mc_935,,Cassel,,18.3811700004587,-33.9202499996229,0,
mc_936,,Sea Point Pool,,18.3851989994983,-33.9186490003524,0,
mc_937,,Boat Bay,,18.3866959997955,-33.9158639995238,0,
mc_938,,Graaff's Pool,,18.3881100005913,-33.9131139997725,0,
mc_939,,London,,18.3894979994485,-33.9112339999608,0,
mc_940,,Promenade,,18.3921329999352,-33.9095059994396,0,
mc_941,,Rocklands,,18.3946219994925,-33.9080609995827,0,
mc_942,,Lower Long,,18.4231200005053,-33.9188140001425,0,
mc_943,,Adderley,,18.424797999982,-33.9204550007084,0,
mc_944,,Adderley,,18.4249320005171,-33.9205990000783,0,
mc_945,,Lower Loop,,18.4223789999385,-33.9184259998404,0,
mc_946,,Queens Beach,,18.3797209992122,-33.9213680009049,0,
mc_947,,Rocklands,,18.3957730005938,-33.9075429998473,0,
mc_948,,Promenade,,18.3920700009187,-33.9096340001608,0,
mc_949,,London,,18.3895560003901,-33.9113159998309,0,
mc_950,,Graaff's Pool,,18.3881909999363,-33.9132059996307,0,
mc_951,,Boat Bay,,18.3867629996159,-33.9160199996574,0,
mc_952,,Sea Point Pool,,18.3852629991211,-33.9187280003703,0,
mc_953,,Cassel,,18.3821860000943,-33.9200759998888,0,
mc_954,,Koosani,,18.379502000509,-33.9244340002668,0,
mc_955,,Bantry Bay,,18.3789920009082,-33.926478999148,0,
mc_956,,Clifton,,18.378172000786,-33.9336360001645,0,
mc_957,,Clifton 2nd,,18.3782660000181,-33.9374800004852,0,
mc_958,,Clifton 3rd,,18.377448000192,-33.9398279995953,0,
mc_959,,Clifton 4th,,18.3757489994495,-33.9415250007087,0,
mc_960,,Maidens Cove,,18.3766870003267,-33.9447499997833,0,
mc_961,,Glen Beach,,18.3789519999922,-33.9485560002664,0,
mc_962,,Camps Bay,,18.3781790003425,-33.9512440000717,0,
mc_963,,Whale Rock,,18.3765399997311,-33.9551280004019,0,
mc_964,,Barley Bay,,18.3769110005934,-33.9592080002207,0,
mc_965,,Bakoven,,18.3735500005132,-33.9631389998222,0,
mc_966,,Koeel Bay,,18.3715369995037,-33.9708969996334,0,
mc_967,,Oudekraal,,18.3505719996998,-33.9883820004595,0,
mc_968,,Llandudno,,18.3475010001872,-34.0055639998817,0,
mc_969,,Ruyteplaats,,18.3501319998212,-34.0142840007992,0,
mc_970,,Mount Rhodes,,18.3512359990335,-34.0199300001118,0,
mc_971,,Helgarda,,18.3495679996595,-34.0279849990298,0,
mc_972,,Daphne,,18.3480710002079,-34.033550000609,0,
mc_973,,Lancaster,,18.3492690004293,-34.0365430003709,0,
mc_974,,Oxford Earl,,18.350097000114,-34.0397639999588,0,
mc_975,,Lower Victoria,,18.3505519999886,-34.0431720001228,0,
mc_976,,Northshore,,18.3480329995471,-34.0469919997113,0,
mc_977,,Fishmarket,,18.3454879995194,-34.0493060002581,0,
mc_978,,Atlantic Skipper,,18.346382000966,-34.0545549992986,0,
mc_979,,Oceana,,18.3447850012717,-34.0558579995858,0,
mc_980,,Hangberg,,18.3415370004251,-34.0539939997697,0,
mc_981,,Bantry Bay,,18.3785179992411,-33.9270790003245,0,
mc_982,,Koosani,,18.3798880004992,-33.9240970003026,0,
mc_983,,Century City,,18.5063389996187,-33.8915590000429,0,
mc_984,,Century Gate,,18.5227880009068,-33.8819890005124,0,
mc_985,,Oasis,,18.5098329995343,-33.8894800000802,0,
mc_986,,Bridgeway,,18.5036480004584,-33.8956119993037,0,
mc_987,,Oasis,,18.5097399998451,-33.8898290003237,0,
mc_988,,Central Park,,18.5116960002131,-33.8869250000752,0,
mc_989,,Central Park,,18.5116469997421,-33.8867810005686,0,
mc_990,,Waterstone,,18.5145089998559,-33.8851720002563,0,
mc_991,,Estuaries,,18.5204509999765,-33.8842769994386,0,
mc_992,,Century Gate,,18.5224159998642,-33.8816059992257,0,
mc_993,,Studio,,18.5177329998493,-33.8845560006745,0,
mc_994,,Century City,,18.5063430004298,-33.8915539997488,0,
mc_995,,Waterstone,,18.5143889999931,-33.8850629990149,0,
mc_996,,Studio,,18.5176790007524,-33.8846850002593,0,
mc_997,,Estuaries,,18.5206060002768,-33.8844130007426,0,
mc_998,,Wood,,18.5067759992843,-33.8295060001695,0,
mc_999,,Big Bay,,18.4587639994136,-33.7927860004063,0,
mc_1000,,Insiswa,,18.5046110006656,-33.5512799998464,0,
mc_1001,,Atlantis,,18.4918109998214,-33.5638499999132,0,
mc_1002,,Civic Centre,,18.4297220007067,-33.9207180002612,0,
mc_1003,,Pontiac,,18.6217640001547,-34.0451309996307,0,
mc_1004,,Pontiac,,18.6217640001547,-34.0451309996307,0,
mc_1005,,Civic Centre,,18.4297220007067,-33.9207180002612,0,
mc_1006,,Adderley,,18.4249320005171,-33.9205990000783,0,
mc_1007,,Darling,,18.4238990004031,-33.9224649997965,0,
mc_1008,,Lower Buitenkant,,18.4247940000938,-33.9264929998302,0,
mc_1009,,Roeland,,18.421177000587,-33.9299719996647,0,
mc_1010,,Roodehek,,18.4198380005092,-33.9323019996221,0,
mc_1011,,London,,18.3895560003901,-33.9113159998309,0,
mc_1012,,Upper Buitenkant,,18.4186630005504,-33.9367220004901,0,
mc_1013,,Highlands,,18.4189149999279,-33.940904999752,0,
mc_1014,,Herzlia,,18.4208429992853,-33.9419969996503,0,
mc_1015,,Exner,,18.4232510004571,-33.9410169999919,0,
mc_1016,,Wexford,,18.4259730006017,-33.9409189997799,0,
mc_1017,,St James,,18.4284200003064,-33.939377000431,0,
mc_1018,,Gardenia,,18.4283309990935,-33.9368350005416,0,
mc_1019,,Nazareth,,18.4253690008965,-33.9361270008092,0,
mc_1020,,Promenade,,18.3920700009187,-33.9096340001608,0,
mc_1021,,Darling,,18.42277699993,-33.9242480006986,0,
mc_1022,,Civic Centre,,18.4297489992939,-33.9207379998985,0,
mc_1023,,Adderley,,18.424797999982,-33.9204550007084,0,
mc_1024,,Lower Buitenkant,,18.424658999454,-33.926619999858,0,
mc_1025,,Roeland,,18.4212109997143,-33.9297659999033,0,
mc_1026,,Roodehek,,18.4201239992375,-33.9316510004856,0,
mc_1027,,Gardens,,18.4195300006187,-33.9342380001388,0,
mc_1028,,Waterfront,,18.4210409997076,-33.9018850005661,0,
mc_1029,,Summer Greens,,18.5245319999803,-33.8778490004376,0,
mc_1030,,Vryburger South,,18.5339249999883,-33.8724130003976,0,
mc_1031,,Cook,,18.539701000682,-33.8531670002243,0,
mc_1032,,Comrie,,18.3878269995414,-33.9488820002927,0,
mc_1033,,Prima,,18.3871390007401,-33.9551230006133,0,
mc_1034,,Platteklip,,18.3871739992387,-33.9565079996607,0,
mc_1035,,Horak,,18.386005999324,-33.9583160006007,0,
mc_1036,,Whale Rock,,18.3770750007771,-33.9532790005971,0,
mc_1037,,Horak,,18.386005999324,-33.9583160006007,0,
mc_1038,,Fiskaal,,18.3827039998063,-33.9587340007121,0,
mc_1039,,Chas Booth,,18.3819240002869,-33.9603780002396,0,
mc_1040,,Susan,,18.3809259992674,-33.9638210004535,0,
mc_1041,,Rontree,,18.3799589999031,-33.9632829988968,0,
mc_1042,,Houghton,,18.3785250000401,-33.9599109997722,0,
mc_1043,,Lower Camps Bay,,18.3777450006163,-33.9555279996372,0,
mc_1044,,Camps Bay,,18.3788370002289,-33.9500120003367,0,
mc_1045,,Waterfront,,18.4210409997076,-33.9018850005661,0,
mc_1046,,Atlantis,,18.491651000577,-33.5639050003842,0,
mc_1047,,Gardens,,18.4195300006187,-33.9342380001388,0,
mc_1048,,Gardens,,18.4195300006187,-33.9342380001388,0,
mc_1049,,Boundary,,18.4933359997865,-33.8914409999438,0,
mc_1050,,Briza,,18.4912220006709,-33.8225949995563,0,
mc_1051,,Pella North,,18.5208419997305,-33.5359259996334,0,
mc_1052,,Kilimanjaro,,18.6382209995199,-34.0612670006886,0,
mc_1053,,Rocklands,,18.3957730005938,-33.9075429998473,0,
mc_1054,,Civic Centre,,18.4297220007067,-33.9207180002612,0,
mc_1055,,Civic Centre,,18.4297489992939,-33.9207379998985,0,
mc_1056,,Kuyasa,,18.6926340001169,-34.0555760004407,0,
mc_1057,,Kuyasa,,18.6916850004539,-34.0558060000772,0,
mc_1058,,Lindela,,18.6974330004733,-34.0571319999688,0,
mc_1059,,Dibana,,18.6988289997524,-34.0504529996477,0,
mc_1060,,Tutu,,18.6979350002297,-34.0469200005451,0,
mc_1061,,D Nyembe,,18.692528000352,-34.045166999752,0,
mc_1062,,Steve Biko,,18.6857860000504,-34.0437509993334,0,
mc_1063,,Charles Mokoena,,18.6832789999844,-34.0410499991732,0,
mc_1064,,Vuyani,,18.6806680001616,-34.0373739996781,0,
mc_1065,,Vuyani,,18.6806800007508,-34.0373680005623,0,
mc_1066,,Charles Mokoena,,18.6832799991174,-34.0410539995139,0,
mc_1067,,Steve Biko,,18.6858010000748,-34.0437579997215,0,
mc_1068,,D Nyembe,,18.6919380002814,-34.044903999921,0,
mc_1069,,Tutu,,18.6979460004869,-34.0469189993789,0,
mc_1070,,Dibana,,18.6988310008923,-34.050419000401,0,
mc_1071,,Lindela,,18.6974499991932,-34.0571400002747,0,
mc_1072,,Civic Centre,,18.4297220007067,-33.9207180002612,0,
mc_1073,,Breakwater,,18.4190630008999,-33.9032700001534,0,
mc_1074,,Waterfront,,18.4210409997076,-33.9018850005661,0,
mc_1075,,Adderley,,18.4249320005171,-33.9205990000783,0,
mc_1076,,Frans,,18.4808240002151,-33.5138870000444,0,
mc_1077,,Denne East,,18.4788420002111,-33.5100649990207,0,
mc_1078,,Sesame,,18.6082940002716,-34.0228440000694,0,
mc_1079,,Marguerite,,18.6145010002027,-34.0317309991499,0,
mc_1080,,Kerrem,,18.6189189999485,-34.0404319996255,0,
mc_1081,,Pontiac,,18.621154000311,-34.0446849994245,0,
mc_1082,,Mitchell's Plain,,18.6196090007939,-34.0464800001131,0,
mc_1083,,Civic Centre,,18.4297489992939,-33.9207379998985,0,
mc_1084,,Sesame,,18.6085710003058,-34.022794999528,0,
mc_1085,,Marguerite,,18.6147130009135,-34.031648000354,0,
mc_1086,,Kerrem,,18.618742000675,-34.0394739998598,0,
mc_1087,,Pontiac,,18.6217640001547,-34.0451309996307,0,
mc_1088,,Mitchell's Plain,,18.6196090007939,-34.0464800001131,0,
mc_1089,,Breakwater,,18.4194839998509,-33.9028630001889,0,
mc_1090,,Foreshore,,18.4302909997931,-33.9183560000351,0,
mc_1091,,Civic Centre,,18.4297220007067,-33.9207180002612,0,
mc_1092,,Sea Point Pool,,18.3852629991211,-33.9187280003703,0,
mc_1093,,Cassel,,18.3821860000943,-33.9200759998888,0,
mc_1094,,Queens Beach,,18.3797209992122,-33.9213680009049,0,
mc_1095,,Civic Centre,,18.4297489992939,-33.9207379998985,0,
mc_1096,,Foreshore,,18.4310769995807,-33.9178450002483,0,
mc_1097,,Breakwater,,18.4190630008999,-33.9032700001534,0,
mc_1098,,Waterfront,,18.4210409997076,-33.9018850005661,0,
mc_1099,,Civic Centre,,18.4297220007067,-33.9207180002612,0,
mc_1100,,Breakwater,,18.4194839998509,-33.9028630001889,0,
mc_1101,,Rocklands,,18.3946219994925,-33.9080609995827,0,
mc_1102,,Promenade,,18.3921329999352,-33.9095059994396,0,
mc_1103,,London,,18.3894979994485,-33.9112339999608,0,
mc_1104,,Graaff's Pool,,18.3881100005913,-33.9131139997725,0,
mc_1105,,Boat Bay,,18.3866959997955,-33.9158639995238,0,
mc_1106,,Sea Point Pool,,18.3851989994983,-33.9186490003524,0,
mc_1107,,Cassel,,18.3811700004587,-33.9202499996229,0,
mc_1108,,Queens Beach,,18.3797209992122,-33.9213680009049,0,
mc_1109,,Three Anchor Bay,,18.3983729997728,-33.9050849993603,0,
mc_1110,,Lighthouse,,18.4023039992292,-33.9009170003327,0,
mc_1111,,Surrey,,18.405254000339,-33.9000589998962,0,
mc_1112,,Mouille Point,,18.4086170006441,-33.8996609992446,0,
mc_1113,,Granger,,18.4129560003729,-33.9013029999365,0,
mc_1114,,Noble Square,,18.4194059999518,-33.9055429998105,0,
mc_1115,,Aquarium,,18.4169960006153,-33.9077149992754,0,
mc_1116,,Marina,,18.4208809992531,-33.9113889989995,0,
mc_1117,,Amsterdam,,18.4230520002641,-33.9123590004858,0,
mc_1118,,Marina,,18.4207849997543,-33.9114809991947,0,
mc_1119,,Aquarium,,18.4176210009547,-33.9071430000312,0,
mc_1120,,Noble Square,,18.4194230006662,-33.9061370004626,0,
mc_1121,,Granger,,18.4121849998637,-33.9007959997277,0,
mc_1122,,Mouille Point,,18.4086999988783,-33.8996540002817,0,
mc_1123,,Surrey,,18.4048540004533,-33.9001750001872,0,
mc_1124,,Lighthouse,,18.4017419990486,-33.9010800001839,0,
mc_1125,,Three Anchor Bay,,18.3985169999539,-33.9045780002363,0,
mc_1126,, ,,18.4643640000447,-33.9276580004361,0,
mc_1127,, ,,18.4648140001766,-33.9293300003734,0,
mc_1128,, ,,18.4588539997053,-33.9289230005272,0,
mc_1129,, ,,18.4572700000171,-33.9300039998017,0,
mc_1130,, ,,18.4529220004481,-33.9318329999772,0,
mc_1131,, ,,18.4516380008719,-33.9347480000674,0,
mc_1132,, ,,18.4510610003701,-33.9375940003336,0,
mc_1133,, ,,18.4489979995459,-33.9360439998721,0,
mc_1134,, ,,18.4469580000615,-33.9348339996708,0,
mc_1135,, ,,18.4431889992945,-33.934494000662,0,
mc_1136,, ,,18.4387299998277,-33.9330900002417,0,
mc_1137,, ,,18.4352079995233,-33.931468999034,0,
mc_1138,, ,,18.4307110000758,-33.9296909999239,0,
mc_1139,,CPUT,,18.4307110000758,-33.9296909999239,0,
mc_1140,,District Six,,18.4352079995233,-33.931468999034,0,
mc_1141,,Zonnebloem,,18.4387299998277,-33.9330900002417,0,
mc_1142,,Coronation West,,18.4431889992945,-33.934494000662,0,
mc_1143,,Coronation East,,18.4469580000615,-33.9348339996708,0,
mc_1144,,Upper Mountain,,18.4489979995459,-33.9360439998721,0,
mc_1145,,Upper Roodebloem,,18.4510610003701,-33.9375940003336,0,
mc_1146,,Balfour,,18.4516380008719,-33.9347480000674,0,
mc_1147,,Lawley,,18.4529220004481,-33.9318329999772,0,
mc_1148,,Upper Salt River,,18.4572700000171,-33.9300039998017,0,
mc_1149,,Kent,,18.4588539997053,-33.9289230005272,0,
mc_1150,,Spencer,,18.4648140001766,-33.9293300003734,0,
mc_1151,,Salt River Rail,,18.4643640000447,-33.9276580004361,0,
mc_1152,,Darling,,18.4222719995466,-33.9238660001151,0,
mc_1153,,Hanover Street,,18.4281050005458,-33.9280229997121,0,
mc_1154,,The Castle,,18.4256139997009,-33.9263069992623,0,
mc_1155,,Adderley,,18.4246760007703,-33.9208449996091,0,
mc_1156,,Civic Centre,,18.4297220007067,-33.9207180002612,0,
mc_1157,,Darling,,18.42277699993,-33.9242480006986,0,
mc_1158,,Chester East,,18.446571999528,-33.9355369988898,0,
mc_1159,,Civic Centre,,18.4297489992939,-33.9207379998985,0,
mc_1160,,Salt River Rail,,18.4643640000447,-33.9276580004361,0,
mc_1161,,Kent,,18.4586740005096,-33.9290460003949,0,
mc_1162,,Upper Salt River,,18.4569000009153,-33.9302569993,0,
mc_1163,,Lawley,,18.4530100001266,-33.9317090000588,0,
mc_1164,,Balfour,,18.4516400001035,-33.9347420000969,0,
mc_1165,,Upper Roodebloem,,18.4511069994535,-33.9373730011211,0,
mc_1166,,Upper Mountain,,18.4490370001266,-33.937214000146,0,
mc_1167,,Chester West,,18.4416050001559,-33.9342430000581,0,
mc_1168,,Zonnebloem,,18.4391029996585,-33.9332819998368,0,
mc_1169,,District Six,,18.4345280007295,-33.931360000197,0,
mc_1170,,CPUT,,18.4303809995091,-33.9296829997604,0,
mc_1171,,Hanover Street,,18.4278929998583,-33.9280230000455,0,
mc_1172,,The Castle,,18.4258459998548,-33.9264749998212,0,
mc_1173,,Adderley,,18.4244999997864,-33.9207360003381,0,
mc_1174,,Civic Centre,,18.4297220007067,-33.9207180002612,0,
mc_1175,,Adderley,,18.4249320005171,-33.9205990000783,0,
mc_1176,,Darling,,18.4222719995466,-33.9238660001151,0,
mc_1177,,Lower Buitenkant,,18.4247940000938,-33.9264929998302,0,
mc_1178,,Montrose,,18.4114410003133,-33.9412810001579,0,
mc_1179,,Upper Kloof,,18.4050990003971,-33.9362280000492,0,
mc_1180,,Welgemeend,,18.4071380012187,-33.9345130001906,0,
mc_1181,,Van Riebeeck,,18.4100060011514,-33.93390300007,0,
mc_1182,,Roeland,,18.421177000587,-33.9299719996647,0,
mc_1183,,Roodehek,,18.4198380005092,-33.9323019996221,0,
mc_1184,,Gardens,,18.4195719999797,-33.9339760002081,0,
mc_1185,,Gardens,,18.4195300006187,-33.9342380001388,0,
mc_1186,,Annandale,,18.4151430007748,-33.933666999878,0,
mc_1187,,De Waal Park,,18.4141129990886,-33.9378630001099,0,
mc_1188,,Upper Orange,,18.4141110007472,-33.9406600003143,0,
mc_1189,,Molteno,,18.4090989998073,-33.9403960008491,0,
mc_1190,,Rayden,,18.409822000041,-33.9370770005172,0,
mc_1191,,Lower Reservoir,,18.4122139990915,-33.935180999678,0,
mc_1192,,Annandale,,18.4147980000129,-33.9330999993652,0,
mc_1193,,Civic Centre,,18.4297489992939,-33.9207379998985,0,
mc_1194,,Adderley,,18.424797999982,-33.9204550007084,0,
mc_1195,,Darling,,18.42277699993,-33.9242480006986,0,
mc_1196,,Lower Buitenkant,,18.424658999454,-33.926619999858,0,
mc_1197,,Roeland,,18.4212109997143,-33.9297659999033,0,
mc_1198,,Roodehek,,18.4201239992375,-33.9316510004856,0,
mc_1199,,Gardens,,18.4195300006187,-33.9342380001388,0,
mc_1200,,St Bedes,,18.3994509992191,-33.9104439998065,0,
mc_1201,,Ravenscraig,,18.4037319998953,-33.9104329998012,0,
mc_1202,,Ben Nevis,,18.4067709992137,-33.9106110000142,0,
mc_1203,,Skye Way,,18.4088560000324,-33.9110099999101,0,
mc_1204,,High Level,,18.4122349998308,-33.9121960003265,0,
mc_1205,,Old Fire Station,,18.4168319998523,-33.9172249993746,0,
mc_1206,,Strand,,18.4201970006488,-33.9197500006441,0,
mc_1207,,Civic Centre,,18.4297489992939,-33.9207379998985,0,
mc_1208,,Adderley,,18.424797999982,-33.9204550007084,0,
mc_1209,,Queens Beach,,18.3797209992122,-33.9213680009049,0,
mc_1210,,Disandt,,18.3858519995434,-33.9228439997626,0,
mc_1211,,Fresnaye,,18.3884360004615,-33.9219359997088,0,
mc_1212,,Irwinton,,18.3895649997141,-33.9203239995644,0,
mc_1213,,The Glen,,18.3918130005202,-33.917435999998,0,
mc_1214,,Albany,,18.3933610000397,-33.9155479999136,0,
mc_1215,,Rhine,,18.3955059994918,-33.9129339998051,0,
mc_1216,,St Bedes,,18.3994119996858,-33.9104449996929,0,
mc_1217,,Ravenscraig,,18.4033900004563,-33.9104120001372,0,
mc_1218,,Ben Nevis,,18.4063600008843,-33.9105869997435,0,
mc_1219,,Skye Way,,18.4088670002275,-33.9110130001454,0,
mc_1220,,High Level,,18.4119130000544,-33.9120520001045,0,
mc_1221,,Old Fire Station,,18.4170359992658,-33.9175219996306,0,
mc_1222,,Queens Beach,,18.3797209992122,-33.9213680009049,0,
mc_1223,,Tramway,,18.3812290002058,-33.9221950001056,0,
mc_1224,,Kei Apple,,18.3831160002194,-33.9211469997388,0,
mc_1225,,Strand,,18.4209009995896,-33.9204329997289,0,
mc_1226,,Rhine,,18.3960690005736,-33.9122730004509,0,
mc_1227,,Albany,,18.3937739998464,-33.9150430003711,0,
mc_1228,,The Glen,,18.3923440006589,-33.9167970001001,0,
mc_1229,,Irwinton,,18.3908770005838,-33.9185779997386,0,
mc_1230,,Fresnaye,,18.3885930003972,-33.9217130003518,0,
mc_1231,,Disandt,,18.3864669996946,-33.9231439997469,0,
mc_1232,,Kloof,,18.3834340000367,-33.9242350003251,0,
mc_1233,,Brevity Lane,,18.3819020000422,-33.9244209996123,0,
mc_1234,,Foreshore,,18.4310769995807,-33.9178450002483,0,
mc_1235,,Amsterdam,,18.4230520002641,-33.9123590004858,0,
mc_1236,,Adderley,,18.4249320005171,-33.9205990000783,0,
mc_1237,,Civic Centre,,18.4297489992939,-33.9207379998985,0,
mc_1238,,Groot Kerk,,18.4211569999267,-33.9240659996739,0,
mc_1239,,Dorp,,18.4175249991247,-33.923932999696,0,
mc_1240,,Upper Long,,18.4146569994686,-33.9265390000035,0,
mc_1241,,Lower Kloof,,18.4120930000834,-33.9286190002711,0,
mc_1242,,Prima,,18.3871390007401,-33.9551230006133,0,
mc_1243,,Plattekloof,,18.3871739992387,-33.9565079996607,0,
mc_1244,,Horak,,18.386005999324,-33.9583160006007,0,
mc_1245,,Ravensteyn,,18.3849119995519,-33.9571750006426,0,
mc_1246,,Fiskaal,,18.3827039998063,-33.9587340007121,0,
mc_1247,,Chas Booth,,18.3819240002869,-33.9603780002396,0,
mc_1248,,Susan,,18.3809259992674,-33.9638210004535,0,
mc_1249,,Rontree,,18.3799589999031,-33.9632829988968,0,
mc_1250,,Houghton,,18.3785250000401,-33.9599109997722,0,
mc_1251,,Whale Rock,,18.3770750007771,-33.9532790005971,0,
mc_1252,,Lower Camps Bay,,18.3777450006163,-33.9555279996372,0,
mc_1253,,Camps Bay,,18.3788370002289,-33.9500120003367,0,
mc_1254,,Camps Bay,,18.3788370002289,-33.9500120003367,0,
mc_1255,,Quebec,,18.3837330006121,-33.9526039998737,0,
mc_1256,,Woodford,,18.3850839996482,-33.9505079995378,0,
mc_1257,,Athol,,18.3860879994731,-33.9494570007615,0,
mc_1258,,Comrie,,18.3878269995414,-33.9488820002927,0,
mc_1259,,Dal,,18.3918210002629,-33.9469149999736,0,
mc_1260,,Kloof Nek,,18.3947930005458,-33.9420790004768,0,
mc_1261,,Cotswold,,18.4018710006202,-33.9352719991025,0,
mc_1262,,St Michael's,,18.4046990003316,-33.9329010007267,0,
mc_1263,,Belle Ombre,,18.4069030004048,-33.9308979996104,0,
mc_1264,,Ludwig's Garden,,18.410099999529,-33.9304250004867,0,
mc_1265,,Lower Kloof,,18.4122000001161,-33.9285160003709,0,
mc_1266,,Upper Loop,,18.4139830010422,-33.9261010001467,0,
mc_1267,,Leeuwen,,18.4163189997971,-33.923955999552,0,
mc_1268,,Groot Kerk,,18.4212200002101,-33.9238359994181,0,
mc_1269,,Adderley,,18.424797999982,-33.9204550007084,0,
mc_1270,,Civic Centre,,18.4297489992939,-33.9207379998985,0,
mc_1271,,Foreshore,,18.4302909997931,-33.9183560000351,0,
mc_1272,,Amsterdam,,18.4229600004019,-33.9126470000937,0,
mc_1273,,Waterfront Silo,,18.4235400011664,-33.9094070002069,0,
mc_1274,,Waterfront Silo,,18.4235400011664,-33.9094070002069,0,
mc_1275,,Houghton,,18.3783250010624,-33.960667999653,0,
mc_1276,,Lower Camps Bay,,18.3777449997897,-33.9555300001385,0,
mc_1277,,Camps Bay,,18.3781790003425,-33.9512440000717,0,
mc_1278,,Rontree,,18.3781320003106,-33.9624400001721,0,
mc_1279,,Fiskaal,,18.3829970001083,-33.9586210004566,0,
mc_1280,,Ravensteyn,,18.3851010004527,-33.9565480000412,0,
mc_1281,,Dal,,18.3918210002629,-33.9469149999736,0,
mc_1282,,Kloof Nek,,18.3947930005458,-33.9420790004768,0,
mc_1283,,Cotswold,,18.4018710006202,-33.9352719991025,0,
mc_1284,,St Michael's,,18.4046990003316,-33.9329010007267,0,
mc_1285,,Belle Ombre,,18.4069030004048,-33.9308979996104,0,
mc_1286,,Ludwig's Garden,,18.410099999529,-33.9304250004867,0,
mc_1287,,Lower Kloof,,18.4122000001161,-33.9285160003709,0,
mc_1288,,Upper Loop,,18.4139830010422,-33.9261010001467,0,
mc_1289,,Leeuwen,,18.4163189997971,-33.923955999552,0,
mc_1290,,Groot Kerk,,18.4212200002101,-33.9238359994181,0,
mc_1291,,Adderley,,18.424797999982,-33.9204550007084,0,
mc_1292,,Civic Centre,,18.4297489992939,-33.9207379998985,0,
mc_1293,,Foreshore,,18.4302909997931,-33.9183560000351,0,
mc_1294,,Amsterdam,,18.4229600004019,-33.9126470000937,0,
mc_1295,,Waterfront Silo,,18.4235400011664,-33.9094070002069,0,
mc_1296,,Quebec,,18.3821060002188,-33.9520999996266,0,
mc_1297,,Camps Bay,,18.3788440001885,-33.9499990004972,0,
mc_1298,,Lower Kloof,,18.4120930000834,-33.9286190002711,0,
mc_1299,,Upper Long,,18.4146569994686,-33.9265390000035,0,
mc_1300,,Dorp,,18.4175249991247,-33.923932999696,0,
mc_1301,,Adderley,,18.4249320005171,-33.9205990000783,0,
mc_1302,,Groot Kerk,,18.4211569999267,-33.9240659996739,0,
mc_1303,,Civic Centre,,18.4297489992939,-33.9207379998985,0,
mc_1304,,Foreshore,,18.4310769995807,-33.9178450002483,0,
mc_1305,,Amsterdam,,18.4230520002641,-33.9123590004858,0,
mc_1306,,Waterfront Silo,,18.4235400011664,-33.9094070002069,0,
mc_1307,,Ludwig's Garden,,18.409389000289,-33.9299949994709,0,
mc_1308,,Belle Ombre,,18.4070730000141,-33.9307419990783,0,
mc_1309,,St Michael's,,18.4042999997136,-33.9332639992084,0,
mc_1310,,Cotswold,,18.4015880008904,-33.9354810004878,0,
mc_1311,,Kloof Nek,,18.3952199993326,-33.9418379998217,0,
mc_1312,,Dal,,18.3918200002431,-33.9469170000382,0,
mc_1313,,Comrie,,18.3875270005946,-33.9496110006048,0,
mc_1314,,Athol,,18.3864120009373,-33.9497479997609,0,
mc_1315,,Woodford,,18.3845079994397,-33.9518760000543,0,
mc_1316,,Civic Centre,,18.4297220007067,-33.9207180002612,0,
mc_1317,,Racecourse,,18.5003670006396,-33.8613840007859,0,
mc_1318,,Sunset Beach,,18.4963090004082,-33.853301999943,0,
mc_1319,,Table View,,18.4888339991628,-33.8247679996143,0,
mc_1320,,Wood,,18.5067490002697,-33.8294989994717,0,
mc_1321,, ,,18.5067490002697,-33.8294989994717,0,
mc_1322,, ,,18.4888339991628,-33.8247679996143,0,
mc_1323,, ,,18.4963090004082,-33.853301999943,0,
mc_1324,, ,,18.5003670006396,-33.8613840007859,0,
mc_1325,, ,,18.4297220007067,-33.9207180002612,0,
mc_1326,,Waterfront,,18.4210469997644,-33.9017760006923,0,
mc_1327,,Waterfront,,18.4210409997076,-33.9018850005661,0,
mc_1328,,Racecourse,,18.5003609996097,-33.8613909997272,0,
mc_1329,,Sunset Beach,,18.4963030002782,-33.8532740001111,0,
mc_1330,,Table View,,18.4888339991628,-33.8247679996143,0,
mc_1331,,Wood,,18.5067759992843,-33.8295060001695,0,
mc_1332,,Janssens,,18.5013710001693,-33.8280930000079,0,
mc_1333,,Circle East,,18.5142150001529,-33.8316039994055,0,
mc_1334,,Potsdam,,18.5261649992255,-33.8333139999836,0,
mc_1335,,Killarney,,18.5309619991107,-33.8239569990617,0,
mc_1336,,Dunoon,,18.5370169996157,-33.8158320001019,0,
mc_1337,,Usasaza,,18.5397810003343,-33.8127060001774,0,
mc_1338,,Grey,,18.4966279995796,-33.8268199999645,0,
mc_1339,,Milnerton,,18.4955079993025,-33.8719439998306,0,
mc_1340,,Woodbridge,,18.4913260000402,-33.8833109999647,0,
mc_1341,,Lagoon Beach,,18.4854010002602,-33.8916320003603,0,
mc_1342,,Zoarvlei,,18.4808459992055,-33.9007620007624,0,
mc_1343,,Vrystaat,,18.4765550002174,-33.9072950000173,0,
mc_1344,,Section,,18.4725419989822,-33.9118649995669,0,
mc_1345,,Neptune,,18.469768000397,-33.915004000258,0,
mc_1346,,Paarden Eiland,,18.4671549996032,-33.917894000509,0,
mc_1347,,Woodstock,,18.4464840006556,-33.9231180002829,0,
mc_1348,,Thibault Square,,18.4241670005728,-33.91876699988,0,
mc_1349,,Stadium,,18.4122939998315,-33.9080959994602,0,
mc_1350,,Granger Bay,,18.4148659999743,-33.9044769995946,0,
mc_1351,,Civic Centre,,18.4297489992939,-33.9207379998985,0,
mc_1352,,Granger Bay,,18.4148680001935,-33.9044759993994,0,
mc_1353,,Stadium,,18.4122950000061,-33.90809599975,0,
mc_1354,,Thibault Square,,18.4241670005728,-33.91876699988,0,
mc_1355,,Woodstock,,18.4464870002779,-33.9231169995768,0,
mc_1356,,Paarden Eiland,,18.4671490000176,-33.9178989997622,0,
mc_1357,,Neptune,,18.469768000397,-33.915004000258,0,
mc_1358,,Section,,18.4725430006508,-33.9118639995554,0,
mc_1359,,Vrystaat,,18.4765560004172,-33.9072949997841,0,
mc_1360,,Zoarvlei,,18.4808420000939,-33.9007609993256,0,
mc_1361,,Lagoon Beach,,18.4853970002558,-33.8916379998074,0,
mc_1362,,Woodbridge,,18.4913260003262,-33.8833080004152,0,
mc_1363,,Milnerton,,18.4954139996948,-33.8719029993593,0,
mc_1364,,Grey,,18.496639000096,-33.8268229994003,0,
mc_1365,,Janssens,,18.501349000733,-33.828087999156,0,
mc_1366,,Circle East,,18.5143040002946,-33.8313510002549,0,
mc_1367,,Potsdam,,18.5260900003014,-33.833289999619,0,
mc_1368,,Killarney,,18.5309619991107,-33.8239569990617,0,
mc_1369,,Dunoon,,18.5370169996157,-33.8158320001019,0,
mc_1370,,Usasaza,,18.5397859992076,-33.8127019994647,0,
mc_1371,,Dunoon,,18.5370169996157,-33.8158320001019,0,
mc_1372,,Wood,,18.5067490002697,-33.8294989994717,0,
mc_1373,,Table View,,18.4888339991628,-33.8247679996143,0,
mc_1374,,Racecourse,,18.5003670006396,-33.8613840007859,0,
mc_1375,,Woodstock,,18.4464840006556,-33.9231180002829,0,
mc_1376,,Civic Centre,,18.4297220007067,-33.9207180002612,0,
mc_1377,,Civic Centre,,18.4297489992939,-33.9207379998985,0,
mc_1378,,Woodstock,,18.4464870002779,-33.9231169995768,0,
mc_1379,,Racecourse,,18.5003609996097,-33.8613909997272,0,
mc_1380,,Table View,,18.4888339991628,-33.8247679996143,0,
mc_1381,,Wood,,18.5067759992843,-33.8295060001695,0,
mc_1382,,Waterville,,18.4876089996928,-33.8040279996613,0,
mc_1383,,Nantucket,,18.4887159992659,-33.8061069994371,0,
mc_1384,,Valderrama,,18.4898749997672,-33.8100240001545,0,
mc_1385,,Garden,,18.4928600000654,-33.814228999017,0,
mc_1386,,St Johns Wood,,18.4971519996045,-33.8165880004275,0,
mc_1387,,Echium,,18.4942959988026,-33.8204370009558,0,
mc_1388,,Briza,,18.4912220006709,-33.8225949995563,0,
mc_1389,,Popham,,18.4835329996774,-33.8234130004706,0,
mc_1390,,Tritonia,,18.4783480005035,-33.8207439997118,0,
mc_1391,,Viola,,18.4793879996697,-33.8184869990632,0,
mc_1392,,Blouberg Rise,,18.4784449999879,-33.8142460001453,0,
mc_1393,,Stirling,,18.4764989994824,-33.812887000371,0,
mc_1394,,West Beach,,18.4784919999585,-33.8107559999804,0,
mc_1395,,Cabin,,18.4781879992302,-33.8082750002474,0,
mc_1396,,Blouberg Sands,,18.4758410003397,-33.8042649998167,0,
mc_1397,,Radar,,18.4783139998314,-33.7999050002363,0,
mc_1398,,Tryall,,18.4839869994971,-33.7975049990293,0,
mc_1399,,Oakland Hills,,18.48662600032,-33.799775000269,0,
mc_1400,,Popham,,18.4843600006461,-33.8235169998394,0,
mc_1401,,Table View,,18.4888339991628,-33.8247679996143,0,
mc_1402,,Briza,,18.4910550004413,-33.8227429999711,0,
mc_1403,,Echium,,18.4937109996397,-33.8207389999268,0,
mc_1404,,Waterville,,18.4872840011552,-33.8036589999066,0,
mc_1405,,Oakland Hills,,18.4869530005997,-33.8003440001617,0,
mc_1406,,Tryall,,18.4839889995911,-33.7975039994121,0,
mc_1407,,Radar,,18.4782170000137,-33.7999400001783,0,
mc_1408,,Blouberg Sands,,18.475844999393,-33.8039410007069,0,
mc_1409,,Cabin,,18.4782739993492,-33.8082760003779,0,
mc_1410,,West Beach,,18.4789130000917,-33.8105370003622,0,
mc_1411,,Stirling,,18.4762239991756,-33.8125560003442,0,
mc_1412,,Blouberg Rise,,18.4784670004348,-33.8142700004815,0,
mc_1413,,Viola,,18.4791400004718,-33.8186330002259,0,
mc_1414,,Marine Circle,,18.4787310004617,-33.8220449997787,0,
mc_1415,,Link,,18.4969480001244,-33.8160150004131,0,
mc_1416,,Garden,,18.4929030000706,-33.8147400002967,0,
mc_1417,,Valderrama,,18.4898469996548,-33.809836999657,0,
mc_1418,,Nantucket,,18.4885870002136,-33.8058809995248,0,
mc_1419,,Table View,,18.4888339991628,-33.8247679996143,0,
mc_1420,,Braseltown,,18.49261900041,-33.8027459998762,0,
mc_1421,,Woodlands,,18.4959119996852,-33.8018379997734,0,
mc_1422,,Wandsworth,,18.5076420003237,-33.8007559997564,0,
mc_1423,,Gie North,,18.5118219996771,-33.8043719997209,0,
mc_1424,,Hamptons,,18.5141259994676,-33.8062999999275,0,
mc_1425,,Gie Central,,18.5187069998857,-33.8134469993635,0,
mc_1426,,Earlswood,,18.5192989998538,-33.8174730000754,0,
mc_1427,,Pinto,,18.5184420001899,-33.8217759997442,0,
mc_1428,,Gie South,,18.5170329999885,-33.8252199992972,0,
mc_1429,,Bitten,,18.5130299994632,-33.8243199993435,0,
mc_1430,,Wood,,18.5067759992843,-33.8295060001695,0,
mc_1431,,Merlot,,18.5081350006934,-33.8245369998111,0,
mc_1432,,Waterville,,18.4876089996928,-33.8040279996613,0,
mc_1433,,Wood,,18.5067490002697,-33.8294989994717,0,
mc_1434,,Merlot,,18.508218999708,-33.8243139999873,0,
mc_1435,,Bitten,,18.5132600008225,-33.8243809996511,0,
mc_1436,,Gie South,,18.5168560002703,-33.825312000362,0,
mc_1437,,Pinto,,18.5185069996264,-33.8216219998283,0,
mc_1438,,Earlswood,,18.5193270007132,-33.8172810000997,0,
mc_1439,,Gie Central,,18.5188250001808,-33.8136619995347,0,
mc_1440,,Hamptons,,18.5139129999451,-33.8061690000278,0,
mc_1441,,Gie North,,18.5116999993815,-33.8042079996296,0,
mc_1442,,Wandsworth,,18.5068160002655,-33.8007310007293,0,
mc_1443,,Braselton,,18.4930719995473,-33.8025910011515,0,
mc_1444,,Woodlands,,18.4974070001726,-33.8015599999614,0,
mc_1445,,Waterville,,18.4872840011552,-33.8036589999066,0,
mc_1446,,Waterville,,18.4876089996928,-33.8040279996613,0,
mc_1447,,Nantucket,,18.4887159992659,-33.8061069994371,0,
mc_1448,,Humewood,,18.4941900010993,-33.8050589991,0,
mc_1449,,Devonshire,,18.4997950003935,-33.8067019998221,0,
mc_1450,,Wood North,,18.5038460005752,-33.8055059998565,0,
mc_1451,,Ravenswood,,18.5047329995386,-33.809922998955,0,
mc_1452,,Wood Central,,18.507375999132,-33.8144810010508,0,
mc_1453,,Muscadel,,18.5095490004698,-33.8205329993375,0,
mc_1454,,Merlot,,18.5081350006934,-33.8245369998111,0,
mc_1455,,Wood,,18.5067759992843,-33.8295060001695,0,
mc_1456,,Wood,,18.5067490002697,-33.8294989994717,0,
mc_1457,,Merlot,,18.508218999708,-33.8243139999873,0,
mc_1458,,Nantucket,,18.4885870002136,-33.8058809995248,0,
mc_1459,,Waterville,,18.4872840011552,-33.8036589999066,0,
mc_1460,,Wood Central,,18.5071239997076,-33.8140849999488,0,
mc_1461,,Muscadel,,18.5095390010791,-33.8207349999896,0,
mc_1462,,Ravenswood,,18.5047490007547,-33.8099709999232,0,
mc_1463,,Wood North,,18.5039090008108,-33.8056969992791,0,
mc_1464,,Devonshire,,18.4992020004599,-33.8069469999893,0,
mc_1465,,Humewood,,18.4947119995549,-33.805040999782,0,
mc_1466,,Table View,,18.4888339991628,-33.8247679996143,0,
mc_1467,,Popham,,18.4835329996774,-33.8234130004706,0,
mc_1468,,Marine Circle,,18.4778549993988,-33.8219060004263,0,
mc_1469,,Seal,,18.4721130008635,-33.8149850003849,0,
mc_1470,,Shell,,18.4699660003311,-33.8118299996998,0,
mc_1471,,Perlemoen,,18.4667140001647,-33.8074159994189,0,
mc_1472,,Bokkombaai,,18.4629589994527,-33.8035689993888,0,
mc_1473,,Kleinbaai,,18.4603000002166,-33.7987500005278,0,
mc_1474,,De Mist,,18.4595670004057,-33.7960699995608,0,
mc_1475,,Melkbosstrand,,18.4423399996427,-33.730857999922,0,
mc_1476,,Melkbosch,,18.4523679999288,-33.7250150002965,0,
mc_1477,,Big Bay,,18.4587709995672,-33.7927950000149,0,
mc_1478,,Marine,,18.460512999517,-33.7924629998319,0,
mc_1479,,Water's Edge,,18.4566379995575,-33.788749999924,0,
mc_1480,,La Paloma,,18.4523870006417,-33.7815990008906,0,
mc_1481,,Hol Bay,,18.4422530002222,-33.7463820000968,0,
mc_1482,,Melbosstrand,,18.4423630005377,-33.7308330005426,0,
mc_1483,,Melkbosch,,18.4523680001527,-33.7250170000231,0,
mc_1484,,Hol Bay,,18.4422659999004,-33.7468870007737,0,
mc_1485,,La Paloma,,18.4527500001009,-33.7821819994949,0,
mc_1486,,Water's Edge,,18.458015999971,-33.7896199993989,0,
mc_1487,,Marine,,18.4606420004157,-33.7924169991538,0,
mc_1488,,Big Bay,,18.4587709995672,-33.7927950000149,0,
mc_1489,,De Mist,,18.4599069996419,-33.796812999872,0,
mc_1490,,Kleinbaai,,18.4605709998267,-33.799496999902,0,
mc_1491,,Bokkombaai,,18.4627949998596,-33.803466999401,0,
mc_1492,,Perlemoen,,18.4661189999697,-33.8066150002361,0,
mc_1493,,Shell,,18.4701790000292,-33.8121260007315,0,
mc_1494,,Seal,,18.4722009994219,-33.8151330002702,0,
mc_1495,,Marine Circle,,18.4787310004617,-33.8220449997787,0,
mc_1496,,Popham,,18.4843600006461,-33.8235169998394,0,
mc_1497,,Table View,,18.4888339991628,-33.8247679996143,0,
mc_1498,,Brittlestar,,18.4527259991894,-33.7342530003814,0,
mc_1499,,Atlantic Beach,,18.4473369999113,-33.7322300003074,0,
mc_1500,,Melkbosstrand,,18.4423399996427,-33.730857999922,0,
mc_1501,,Waratah,,18.4560109998981,-33.7358130008295,0,
mc_1502,,Atalantes,,18.4474620006133,-33.7234839998526,0,
mc_1503,,Robben,,18.4456739997246,-33.7169140001237,0,
mc_1504,,Hoffe South,,18.4462870006566,-33.7112980001221,0,
mc_1505,,Riebeeckstrand,,18.4442969998128,-33.7056660003302,0,
mc_1506,,Pelican,,18.4437549998054,-33.7015820008546,0,
mc_1507,,Hoffe North,,18.4418520000673,-33.6969909996144,0,
mc_1508,,Dunker,,18.4427619995269,-33.6937439994174,0,
mc_1509,,Edward,,18.4427140000001,-33.6917659999599,0,
mc_1510,,Narcissus,,18.4444239999147,-33.6901650004093,0,
mc_1511,,Human,,18.448459999412,-33.6876570006353,0,
mc_1512,,Kemp,,18.4521959999311,-33.6852860006524,0,
mc_1513,,Kemp,,18.4521959999311,-33.6852860006524,0,
mc_1514,,Le Sueur,,18.4548519998714,-33.687031000516,0,
mc_1515,,Losperds,,18.4528020005997,-33.6899140003447,0,
mc_1516,,Petrus,,18.4502150006944,-33.6922400007736,0,
mc_1517,,Raymond,,18.4477820002513,-33.692553999351,0,
mc_1518,,Waldeck,,18.445559999748,-33.6945150003067,0,
mc_1519,,Hoffe North,,18.4417880003591,-33.6967119997196,0,
mc_1520,,Pelican,,18.4438089998534,-33.7017380000555,0,
mc_1521,,Riebeeckstrand,,18.4442200003339,-33.7053940002239,0,
mc_1522,,Hoffe South,,18.446226999503,-33.7114489991646,0,
mc_1523,,Robben,,18.4459400003494,-33.717905000352,0,
mc_1524,,Atalantes,,18.4475789996019,-33.7239290003056,0,
mc_1525,,Melbosstrand,,18.4423630005377,-33.7308330005426,0,
mc_1526,,Atlantic Beach,,18.4474030003139,-33.7322170005398,0,
mc_1527,,Brittlestar,,18.4527530005357,-33.7343000002794,0,
mc_1528,,Waratah,,18.4563649990803,-33.7358269997382,0,
mc_1529,,Atlantis,,18.4918230004362,-33.5638630002054,0,
mc_1530,,Reygersdal,,18.4940510008902,-33.5667140000898,0,
mc_1531,,Charel Uys,,18.4925570001202,-33.5696059996035,0,
mc_1532,,Dahlia,,18.489500000845,-33.5742289994345,0,
mc_1533,,Starke,,18.4872200001484,-33.579994999693,0,
mc_1534,,Charel Uys South,,18.4861070005382,-33.5836219998018,0,
mc_1535,,John Dreyer,,18.4916199999347,-33.5877789998323,0,
mc_1536,,Johan Heyns,,18.4897020006063,-33.5925299998885,0,
mc_1537,,Industrial,,18.4841139992816,-33.5967430000808,0,
mc_1538,,Charles Piers,,18.4812550010168,-33.5991310000482,0,
mc_1539,,Louwtjie Rothman,,18.4789530006831,-33.5975770005762,0,
mc_1540,,Grosvenor,,18.4909549998504,-33.5718420004405,0,
mc_1541,,Louwtjie Rothman,,18.478944000326,-33.5975689992101,0,
mc_1542,,Charles Piers,,18.4815180003217,-33.5989109996277,0,
mc_1543,,Industrial,,18.484500999066,-33.5964249996003,0,
mc_1544,,Johan Heyns,,18.4897229994228,-33.5925129997786,0,
mc_1545,,John Dreyer,,18.4918460008804,-33.588351999376,0,
mc_1546,,Charel Uys South,,18.486192000983,-33.5833559996784,0,
mc_1547,,Starke,,18.4872219998857,-33.5799879996143,0,
mc_1548,,Dahlia,,18.489433000224,-33.5743419995723,0,
mc_1549,,Grosvenor,,18.4905269999943,-33.5724959997814,0,
mc_1550,,Charel Uys,,18.4924149992296,-33.5698050003829,0,
mc_1551,,Reygersdal,,18.4939599991229,-33.5666700005712,0,
mc_1552,,Atlantis,,18.491651000577,-33.5639050003842,0,
mc_1553,,Omuramba,,18.5124509997956,-33.8682029998126,0,
mc_1554,,Estuaries,,18.5206060002768,-33.8844130007426,0,
mc_1555,,Waterview,,18.5202899992671,-33.8868539990876,0,
mc_1556,,Waterford,,18.5194269997343,-33.8890909999406,0,
mc_1557,,Canal Walk North,,18.5152400000411,-33.8926839993627,0,
mc_1558,,Canal Walk South,,18.510526000021,-33.8964820004323,0,
mc_1559,,Grand Canal,,18.5059120006001,-33.8941199999524,0,
mc_1560,,Century City,,18.5063389996187,-33.8915590000429,0,
mc_1561,,Kunene,,18.5125919997023,-33.8630590004036,0,
mc_1562,,Dawn,,18.5177519996852,-33.8551389996809,0,
mc_1563,,Esso,,18.5213279993004,-33.8584839996353,0,
mc_1564,,First,,18.5213200005287,-33.8620119999056,0,
mc_1565,,Marconi,,18.5196549990717,-33.8655150003061,0,
mc_1566,,Bolt,,18.5180669999902,-33.8681379995475,0,
mc_1567,,Drill,,18.5190560004666,-33.8732289995691,0,
mc_1568,,Bosmansdam,,18.5208869996638,-33.8784569998705,0,
mc_1569,,Century Gate,,18.5225119993868,-33.8819510000901,0,
mc_1570,,Century City,,18.5063430004298,-33.8915539997488,0,
mc_1571,,Grand Canal,,18.5061129999995,-33.8940810000262,0,
mc_1572,,Canal Walk South,,18.5107890008289,-33.8962819994836,0,
mc_1573,,Canal Walk North,,18.5154789989069,-33.8922760000012,0,
mc_1574,,Waterford,,18.5188339999064,-33.8895080000934,0,
mc_1575,,Waterview,,18.5200729996714,-33.8863949994904,0,
mc_1576,,Estuaries,,18.5204509999765,-33.8842769994386,0,
mc_1577,,Century Gate,,18.5224159998642,-33.8816059992257,0,
mc_1578,,Omuramba,,18.5124849994102,-33.8682210005325,0,
mc_1579,,Bosmansdam,,18.5207299996907,-33.8784739997424,0,
mc_1580,,Drill,,18.5194610003215,-33.8748949998107,0,
mc_1581,,Bolt,,18.5178400002243,-33.8698679998392,0,
mc_1582,,Marconi,,18.5192639999203,-33.8658400002041,0,
mc_1583,,First,,18.5212470007856,-33.861304000006,0,
mc_1584,,Esso,,18.5211160005532,-33.858150999592,0,
mc_1585,,Montague Gardens,,18.5159960000393,-33.8554670001728,0,
mc_1586,,Kunene,,18.5127159998096,-33.8633990000791,0,
mc_1587,,Porterfield,,18.4886030008114,-33.8150500005533,0,
mc_1588,,Atlantis,,18.491651000577,-33.5639050003842,0,
mc_1589,,Sandown,,18.4842739993967,-33.8069209999691,0,
mc_1590,,Table View,,18.4888339991628,-33.8247679996143,0,
mc_1591,,Sunset Beach,,18.4963090004082,-33.853301999943,0,
mc_1592,,Racecourse,,18.5003670006396,-33.8613840007859,0,
mc_1593,,Milnerton,,18.4955079993025,-33.8719439998306,0,
mc_1594,,Woodbridge,,18.4913260000402,-33.8833109999647,0,
mc_1595,,Lagoon Beach,,18.4854010002602,-33.8916320003603,0,
mc_1596,,Zoarvlei,,18.4808459992055,-33.9007620007624,0,
mc_1597,,Vrystaat,,18.4765550002174,-33.9072950000173,0,
mc_1598,,Section,,18.4725419989822,-33.9118649995669,0,
mc_1599,,Neptune,,18.469768000397,-33.915004000258,0,
mc_1600,,Paarden Eiland,,18.4671549996032,-33.917894000509,0,
mc_1601,,Woodstock,,18.4464840006556,-33.9231180002829,0,
mc_1602,,Civic Centre,,18.4297220007067,-33.9207180002612,0,
mc_1603,,Civic Centre,,18.4297489992939,-33.9207379998985,0,
mc_1604,,Woodstock,,18.4464870002779,-33.9231169995768,0,
mc_1605,,Paarden Eiland,,18.4671490000176,-33.9178989997622,0,
mc_1606,,Neptune,,18.469768000397,-33.915004000258,0,
mc_1607,,Section,,18.4725430006508,-33.9118639995554,0,
mc_1608,,Vrystaat,,18.4765560004172,-33.9072949997841,0,
mc_1609,,Zoarvlei,,18.4808420000939,-33.9007609993256,0,
mc_1610,,Lagoon Beach,,18.4853970002558,-33.8916379998074,0,
mc_1611,,Woodbridge,,18.4913260003262,-33.8833080004152,0,
mc_1612,,Milnerton,,18.4954139996948,-33.8719029993593,0,
mc_1613,,Racecourse,,18.5003609996097,-33.8613909997272,0,
mc_1614,,Sunset Beach,,18.4963030002782,-33.8532740001111,0,
mc_1615,,Table View,,18.4888339991628,-33.8247679996143,0,
mc_1616,,Porterfield,,18.4885540000921,-33.8150589998875,0,
mc_1617,,Sandown,,18.4842690001081,-33.8069110003287,0,
mc_1618,,Atlantis,,18.4918109998214,-33.5638499999132,0,
mc_1619,,Century City,,18.5063389996187,-33.8915590000429,0,
mc_1620,,Sanddrift,,18.5104089994598,-33.8837259993046,0,
mc_1621,,Phoenix,,18.5129279999411,-33.8723870007131,0,
mc_1622,,Omuramba,,18.5124509997956,-33.8682029998126,0,
mc_1623,,Refinery,,18.5203000009037,-33.8486609998594,0,
mc_1624,,Montague Gardens,,18.5159960000393,-33.8554670001728,0,
mc_1625,,Potsdam,,18.5261649992255,-33.8333139999836,0,
mc_1626,,Killarney,,18.5309619991107,-33.8239569990617,0,
mc_1627,,Dunoon,,18.5370169996157,-33.8158320001019,0,
mc_1628,,Usasaza,,18.5397810003343,-33.8127060001774,0,
mc_1629,,Turf Club,,18.5111290000048,-33.8626109999293,0,
mc_1630,,Century City,,18.5063430004298,-33.8915539997488,0,
mc_1631,,Sandrift,,18.510278000472,-33.883717999944,0,
mc_1632,,Phoenix,,18.5129229990451,-33.8723949995826,0,
mc_1633,,Omuramba,,18.5124849994102,-33.8682210005325,0,
mc_1634,,Turf Club,,18.5110130002657,-33.8625659993109,0,
mc_1635,,Montague Gardens,,18.5158240000427,-33.8554830008772,0,
mc_1636,,Refinery,,18.5201719990869,-33.8486259996493,0,
mc_1637,,Potsdam,,18.5260900003014,-33.833289999619,0,
mc_1638,,Killarney,,18.5309619991107,-33.8239569990617,0,
mc_1639,,Dunoon,,18.5370169996157,-33.8158320001019,0,
mc_1640,,Usasaza,,18.5397859992076,-33.8127019994647,0,
mc_1641,,Hill,,18.402539000297,-33.9077850000033,0,
mc_1642,,Ellerslie,,18.3979579995477,-33.9080810003934,0,
mc_1643,,Camberwell,,18.3963869995217,-33.9088879995556,0,
mc_1644,,Sea Point High,,18.3937649999626,-33.9110529992788,0,
mc_1645,,Firmount,,18.3925110001166,-33.9125080004854,0,
mc_1646,,Sea Point,,18.3902250004818,-33.9151749996981,0,
mc_1647,,Arthur's,,18.3882970002601,-33.9174409999515,0,
mc_1648,,Clarens,,18.3859190005375,-33.9193779994529,0,
mc_1649,,Kei Apple,,18.3835090004145,-33.9208989999603,0,
mc_1650,,Tramway,,18.3817150011423,-33.9219299996261,0,
mc_1651,,Koosani,,18.3798880004992,-33.9240970003026,0,
mc_1652,,Bantry Bay,,18.3785179992411,-33.9270790003245,0,
mc_1653,,Hangberg,,18.3420669993576,-34.0542399990613,0,
mc_1654,,Oceana,,18.345269999873,-34.0563380003299,0,
mc_1655,,Atlantic Skipper,,18.3465420006577,-34.054782000266,0,
mc_1656,,Fishmarket,,18.3454740005308,-34.0493229997571,0,
mc_1657,,Northshore,,18.3480060001665,-34.0470150006963,0,
mc_1658,,Lower Victoria,,18.3505209993721,-34.0429359997867,0,
mc_1659,,Oxford Earl,,18.3501250005025,-34.0399699997441,0,
mc_1660,,Lancaster,,18.3492220003861,-34.0364200003515,0,
mc_1661,,Daphne,,18.3480539995445,-34.0326570008849,0,
mc_1662,,Helgarda,,18.3496890014222,-34.0277110002855,0,
mc_1663,,Ruyteplaats,,18.3499690003786,-34.0133529997216,0,
mc_1664,,Mount Rhodes,,18.3511980000198,-34.019586999714,0,
mc_1665,,Llandudno,,18.3475250010866,-34.0066500008933,0,
mc_1666,,Oudekraal,,18.3509879998344,-33.9883709995068,0,
mc_1667,,Koeel Bay,,18.3713890006435,-33.9705009997223,0,
mc_1668,,Bakoven,,18.3736729991104,-33.962976999847,0,
mc_1669,,Barley Bay,,18.3772460007013,-33.958892000125,0,
mc_1670,,Whale Rock,,18.3770750007771,-33.9532790005971,0,
mc_1671,,Camps Bay,,18.3788370002289,-33.9500120003367,0,
mc_1672,,Glen Beach,,18.3786329991531,-33.9470509995362,0,
mc_1673,,Maidens Cove,,18.3762849995792,-33.9442739997395,0,
mc_1674,,Clifton 4th,,18.3755000001818,-33.9417730001698,0,
mc_1675,,Clifton 3rd,,18.3771490002746,-33.9401289997269,0,
mc_1676,,Clifton 2nd,,18.3782850007298,-33.9370509995147,0,
mc_1677,,Clifton,,18.3781339999022,-33.9335040005793,0,
mc_1678,,Wigtown,,18.4064319993346,-33.9075200004827,0,
mc_1679,,Upper Portswood,,18.4132060005635,-33.9091899993043,0,
mc_1680,,Gallows Hill,,18.4162460009119,-33.9119759998731,0,
mc_1681,,Alfred,,18.4185569989204,-33.915970000127,0,
mc_1682,,Riebeeck,,18.4209429996297,-33.9182149993043,0,
mc_1683,,Hill,,18.402539000297,-33.9077850000033,0,
mc_1684,,Adderley,,18.424797999982,-33.9204550007084,0,
mc_1685,,Camberwell,,18.395823999871,-33.909212000656,0,
mc_1686,,Ellerslie,,18.3982969996721,-33.9081660004678,0,
mc_1687,,Hill,,18.4033770004586,-33.9078160003909,0,
mc_1688,,Wigtown,,18.4069919997801,-33.9075720002066,0,
mc_1689,,Upper Portswood,,18.4130879999117,-33.9092099997766,0,
mc_1690,,Gallows Hill,,18.41610500041,-33.9119829995538,0,
mc_1691,,Riebeeck,,18.4208299999154,-33.9182909992134,0,
mc_1692,,Alfred,,18.4182180002972,-33.9152949996746,0,
mc_1693,,Ellerslie,,18.3979579995477,-33.9080810003934,0,
mc_1694,,Hangberg,,18.3415370004251,-34.0539939997697,0,
mc_1695,,Oceana,,18.3447850012717,-34.0558579995858,0,
mc_1696,,Atlantic Skipper,,18.346382000966,-34.0545549992986,0,
mc_1697,,Fishmarket,,18.3454879995194,-34.0493060002581,0,
mc_1698,,Northshore,,18.3480329995471,-34.0469919997113,0,
mc_1699,,Lower Victoria,,18.3505519999886,-34.0431720001228,0,
mc_1700,,Oxford Earl,,18.350097000114,-34.0397639999588,0,
mc_1701,,Lancaster,,18.3492690004293,-34.0365430003709,0,
mc_1702,,Daphne,,18.3480710002079,-34.033550000609,0,
mc_1703,,Helgarda,,18.3495679996595,-34.0279849990298,0,
mc_1704,,Mount Rhodes,,18.3512359990335,-34.0199300001118,0,
mc_1705,,Ruyteplaats,,18.3501319998212,-34.0142840007992,0,
mc_1706,,Llandudno,,18.3475010001872,-34.0055639998817,0,
mc_1707,,Oudekraal,,18.3505719996998,-33.9883820004595,0,
mc_1708,,Koeel Bay,,18.3715369995037,-33.9708969996334,0,
mc_1709,,Bakoven,,18.3735500005132,-33.9631389998222,0,
mc_1710,,Barley Bay,,18.3769110005934,-33.9592080002207,0,
mc_1711,,Whale Rock,,18.3765399997311,-33.9551280004019,0,
mc_1712,,Camps Bay,,18.3781790003425,-33.9512440000717,0,
mc_1713,,Glen Beach,,18.3789519999922,-33.9485560002664,0,
mc_1714,,Maidens Cove,,18.3766870003267,-33.9447499997833,0,
mc_1715,,Clifton 4th,,18.3757489994495,-33.9415250007087,0,
mc_1716,,Clifton 3rd,,18.377448000192,-33.9398279995953,0,
mc_1717,,Clifton 2nd,,18.3782660000181,-33.9374800004852,0,
mc_1718,,Clifton,,18.378172000786,-33.9336360001645,0,
mc_1719,,Bantry Bay,,18.3789920009082,-33.926478999148,0,
mc_1720,,Koosani,,18.379502000509,-33.9244340002668,0,
mc_1721,,Adderley,,18.4246760007703,-33.9208449996091,0,
mc_1722,,Sea Point High,,18.3940839998056,-33.9106879998296,0,
mc_1723,,Firmount,,18.3919019992448,-33.9132229998792,0,
mc_1724,,Sea Point,,18.3900130003611,-33.9154209996735,0,
mc_1725,,Arthur's,,18.3879370007094,-33.9178660004738,0,
mc_1726,,Clarens,,18.3856609995649,-33.9195399996765,0,
mc_1727,,Kei Apple,,18.3831160002194,-33.9211469997388,0,
mc_1728,,Tramway,,18.3812290002058,-33.9221950001056,0,
mc_1729,,Camberwell,,18.3963869995217,-33.9088879995556,0,
mc_1730,,Sea Point High,,18.3937649999626,-33.9110529992788,0,
mc_1731,,Firmount,,18.3925110001166,-33.9125080004854,0,
mc_1732,,Sea Point,,18.3902250004818,-33.9151749996981,0,
mc_1733,,Arthur's,,18.3882970002601,-33.9174409999515,0,
mc_1734,,Clarens,,18.3859190005375,-33.9193779994529,0,
mc_1735,,Kei Apple,,18.3835090004145,-33.9208989999603,0,
mc_1736,,Tramway,,18.3817150011423,-33.9219299996261,0,
mc_1737,,Koosani,,18.3798880004992,-33.9240970003026,0,
mc_1738,,Bantry Bay,,18.3785179992411,-33.9270790003245,0,
mc_1739,,Hill,,18.4033770004586,-33.9078160003909,0,
mc_1740,,Ellerslie,,18.3982969996721,-33.9081660004678,0,
mc_1741,,Camberwell,,18.395823999871,-33.909212000656,0,
mc_1742,,Valley,,18.3509859998886,-34.0304760004454,0,
mc_1743,,Imizamo Yethu,,18.3556970000723,-34.0299109998565,0,
mc_1744,,Berg-en-Dal,,18.3571790000445,-34.0366619995896,0,
mc_1745,,Scott,,18.3587990008604,-34.0395460001202,0,
mc_1746,,Military,,18.3593710004389,-34.0426450002502,0,
mc_1747,,Hout Bay,,18.3590409999789,-34.0453169989277,0,
mc_1748,,Helgarda,,18.3496890014222,-34.0277110002855,0,
mc_1749,,Ruyteplaats,,18.3499690003786,-34.0133529997216,0,
mc_1750,,Mount Rhodes,,18.3511980000198,-34.019586999714,0,
mc_1751,,Llandudno,,18.3475250010866,-34.0066500008933,0,
mc_1752,,Oudekraal,,18.3509879998344,-33.9883709995068,0,
mc_1753,,Koeel Bay,,18.3713890006435,-33.9705009997223,0,
mc_1754,,Bakoven,,18.3736729991104,-33.962976999847,0,
mc_1755,,Barley Bay,,18.3772460007013,-33.958892000125,0,
mc_1756,,Whale Rock,,18.3770750007771,-33.9532790005971,0,
mc_1757,,Camps Bay,,18.3788370002289,-33.9500120003367,0,
mc_1758,,Glen Beach,,18.3786329991531,-33.9470509995362,0,
mc_1759,,Maidens Cove,,18.3762849995792,-33.9442739997395,0,
mc_1760,,Clifton 4th,,18.3755000001818,-33.9417730001698,0,
mc_1761,,Clifton 3rd,,18.3771490002746,-33.9401289997269,0,
mc_1762,,Clifton 2nd,,18.3782850007298,-33.9370509995147,0,
mc_1763,,Clifton,,18.3781339999022,-33.9335040005793,0,
mc_1764,,Wigtown,,18.4064319993346,-33.9075200004827,0,
mc_1765,,Upper Portswood,,18.4132060005635,-33.9091899993043,0,
mc_1766,,Gallows Hill,,18.4162460009119,-33.9119759998731,0,
mc_1767,,Alfred,,18.4185569989204,-33.915970000127,0,
mc_1768,,Riebeeck,,18.4209429996297,-33.9182149993043,0,
mc_1769,,Adderley,,18.424797999982,-33.9204550007084,0,
mc_1770,,Wigtown,,18.4069919997801,-33.9075720002066,0,
mc_1771,,Upper Portswood,,18.4130879999117,-33.9092099997766,0,
mc_1772,,Gallows Hill,,18.41610500041,-33.9119829995538,0,
mc_1773,,Riebeeck,,18.4208299999154,-33.9182909992134,0,
mc_1774,,Alfred,,18.4182180002972,-33.9152949996746,0,
mc_1775,,Llandudno,,18.3475010001872,-34.0055639998817,0,
mc_1776,,Oudekraal,,18.3505719996998,-33.9883820004595,0,
mc_1777,,Koeel Bay,,18.3715369995037,-33.9708969996334,0,
mc_1778,,Bakoven,,18.3735500005132,-33.9631389998222,0,
mc_1779,,Barley Bay,,18.3769110005934,-33.9592080002207,0,
mc_1780,,Whale Rock,,18.3765399997311,-33.9551280004019,0,
mc_1781,,Camps Bay,,18.3781790003425,-33.9512440000717,0,
mc_1782,,Glen Beach,,18.3789519999922,-33.9485560002664,0,
mc_1783,,Maidens Cove,,18.3766870003267,-33.9447499997833,0,
mc_1784,,Clifton 4th,,18.3757489994495,-33.9415250007087,0,
mc_1785,,Clifton 3rd,,18.377448000192,-33.9398279995953,0,
mc_1786,,Clifton 2nd,,18.3782660000181,-33.9374800004852,0,
mc_1787,,Clifton,,18.378172000786,-33.9336360001645,0,
mc_1788,,Bantry Bay,,18.3789920009082,-33.926478999148,0,
mc_1789,,Koosani,,18.379502000509,-33.9244340002668,0,
mc_1790,,Adderley,,18.4246760007703,-33.9208449996091,0,
mc_1791,,Sea Point High,,18.3940839998056,-33.9106879998296,0,
mc_1792,,Firmount,,18.3919019992448,-33.9132229998792,0,
mc_1793,,Sea Point,,18.3900130003611,-33.9154209996735,0,
mc_1794,,Arthur's,,18.3879370007094,-33.9178660004738,0,
mc_1795,,Clarens,,18.3856609995649,-33.9195399996765,0,
mc_1796,,Kei Apple,,18.3831160002194,-33.9211469997388,0,
mc_1797,,Tramway,,18.3812290002058,-33.9221950001056,0,
mc_1798,,Hout Bay,,18.359059999415,-34.0453150002749,0,
mc_1799,,Military,,18.3593729997549,-34.0426260002957,0,
mc_1800,,Scott,,18.358956999181,-34.039834999855,0,
mc_1801,,Berg-en-Dal,,18.3575249992267,-34.0372770001767,0,
mc_1802,,Imizamo Yethu,,18.3552169995743,-34.0299559999855,0,
mc_1803,,Valley,,18.3515060000869,-34.0303970009593,0,
mc_1804,,Ruyteplaats,,18.3501319998212,-34.0142840007992,0,
mc_1805,,Mount Rhodes,,18.3512359990335,-34.0199300001118,0,
mc_1806,,Helgarda,,18.3495840004588,-34.0279870002426,0,
mc_1807,,Civic Centre,,18.4297489992939,-33.9207379998985,0,
mc_1808,,Airport,,18.5952159993637,-33.969176000184,0,
mc_1809,,Airport,,18.5952159993637,-33.969176000184,0,
mc_1810,,Civic Centre,,18.4297220007067,-33.9207180002612,0,